,townland,town,population,lat,lng
0,Abbey Island,Ballyshannon Rural,10.0,54.5100562,-8.195736816089788
1,Abbeylands,Ballyshannon Rural,121.0,54.5130054,-8.204606285120382
2,Adderville,Straid,54.0,55.2391118,-7.43477101619029
3,Adderwal,Gleann Léithín,9.0,54.90582095,-8.16839922450579
4,Admiran,Stranorlar,364.0,54.81115715,-7.7655465087402975
5,Aghadachor,Glen,15.0,55.14468879999999,-7.841592528033099
6,Aghadaghly,Grianfort,7.0,55.1998623,-7.655744449631827
7,Aghadowey,Ballintra,28.0,54.58550365,-8.054880272424963
8,Aghadreenan,Rosnakill,44.0,55.1870958,-7.661065215491787
9,Aghafoy,Pettigoe,4.0,54.5475539,-7.849806223016571
10,Aghaglassan,Gleneely,65.0,55.21894355000001,-7.171859150735294
11,Aghalattive,Ards,48.0,55.14963335,-7.891492924517549
12,Aghalatty,Carraig Airt,36.0,55.1694336,-7.773479300000001
13,Aghangaddy Glebe,Rathmelton,127.0,55.01556755,-7.659640573148818
14,Aghanursan,Millford,29.0,55.08894315,-7.681312261732818
15,Aghasheil,Stranorlar,19.0,54.8125654,-7.7977984713853665
16,Aghatubbrid,Gleneely,15.0,55.25466745,-7.146550470122664
17,Aghavannan Far,Rathmullan,34.0,55.105521200000005,-7.54276521794036
18,Aghavannan Near,Rathmullan,23.0,55.102433999999995,-7.5393382602408705
19,Aghaveagh,Allt na Péiste,22.0,54.79666700000001,-7.885278
20,Aghawee,Clonleigh South,25.0,54.8156338,-7.541780371295457
21,Aghawoney,Ballyarr,30.0,55.04444455,-7.728409050145768
22,Aghayeevoge,Killybegs,112.0,54.6616599,-8.413179900638598
23,Aghilly and Lenynarnan,Buncrana Rural,107.0,55.13521445,-7.423406719919789
24,Aghlehard,Magheraboy,77.0,54.92816485,-7.660571801532298
25,Aghlem,Tullynaught,18.0,54.6556085,-8.024356804314346
26,Aghnahoo Glebe,Templecarn,29.0,54.53841725,-7.853469485544852
27,Aghnakeeragh,Raphoe,33.0,54.8662065,-7.618070875000003
28,Aghragh,Gleann Cholm Cille,48.0,54.650137150000006,-8.655825879732785
29,Aighan,Dunkineely,28.0,54.647157799999995,-8.38273177682711
30,Aighe,Gleann Gheis,29.0,54.737221999999996,-8.430833
31,Alla,Ballyshannon Rural,12.0,54.54030855,-8.169265044078589
32,Alt Lower,Urney West,45.0,54.766667000000005,-7.5833330000000005
33,Alt Upper,Urney West,95.0,54.765,-7.5913889999999995
34,Altadoo,Donegal,17.0,54.681360899999994,-8.161575299999999
35,Altaghaderry,Killea,461.0,54.98776170000001,-7.408973961033371
36,Altahalla,Straid,153.0,55.2448463,-7.409090700000001
37,Altaskin,St. Johnstown,24.0,54.93113320000001,-7.471662321285668
38,Altatraght,An Clochán,8.0,54.82797420000001,-8.021521757000263
39,Altcor,Bonnyglen,9.0,54.69471305,-8.288873413082689
40,Altilow,Haugh,40.0,54.70409115,-8.096118513539395
41,Altlahan,An Clochán,35.0,54.8580655,-7.960809200000001
42,Altnagapple,Maol Mosóg,7.0,54.728333,-8.376111
43,Altnapaste,Allt na Péiste,27.0,54.811803000000005,-7.930795
44,Annagary,Anagaire,383.0,55.0216691,-8.3178413
45,Annagh,Straid,167.0,55.2777022,-7.4104637591375795
46,Annaslee,Fahan,17.0,55.10141215,-7.390992169758949
47,Anny Far and Near,Cnoc Colbha,27.0,55.153211,-7.558757793004163
48,Aphort (Aran Island),Árainn Mhór,49.0,54.976389000000005,-8.519444
49,Ardaganny,Corravaddy,42.0,54.918938399999995,-7.7359000999999985
50,Ardagh (ED Ballyliffin),Ballyliffin,81.0,55.2869319,-7.394015437224294
51,Ardagh (ED Treantamucklagh),Treantaghmucklagh,49.0,54.9380494,-7.5350828
52,Ardaghy Glebe,Inver,58.0,54.65575215,-8.287792948101366
53,Ardahee,Ballymacool,11.0,54.933503200000004,-7.792963499999999
54,Ardara,Ard an Rátha,548.0,54.7636255,-8.4105918
55,Ardaravan,Buncrana Urban,2229.0,55.1330586,-7.448716563873077
56,Ardarawer,Castlewray,566.0,54.9710662,-7.69908952974508
57,Ardatowel,Tawnawully,41.0,54.69973805,-8.016812718512888
58,Ardbane (ED Eanymore),Eanymore,7.0,54.7187886,-8.147493181757929
59,Ardbane (ED Rosguill),Ros Goill,23.0,55.21786285,-7.860806450000008
60,Ardee,Newtown Cunningham,44.0,54.99654385,-7.552686966744836
61,Ardeelan Lower,Ballintra,21.0,54.5495041,-8.203672908884036
62,Ardeevin,Tawnawully,37.0,54.691111,-8.019444
63,Ardeskin,Donegal,201.0,54.64967255000001,-8.095967585048621
64,Ardfarn,Bundoran Rural,150.0,54.4688255,-8.25313255414829
65,Ardgillew,Cavangarden,12.0,54.5260219,-8.156463413906431
66,Ardglass,Grianfort,35.0,55.20494420000001,-7.642207102185748
67,Ardinawark,Tawnawully,75.0,54.7062157,-7.983915263387098
68,Ardlenagh,Donegal,18.0,54.63315105,-8.119322770051612
69,Ardlougher,Maol Mosóg,10.0,54.8396829,-8.3919185
70,Ardloughill,Carrickboy,32.0,54.47509270000001,-8.171089211663855
71,Ardmalin,Ardmalin,366.0,55.366231000000006,-7.358795376960781
72,Ardmeen,Cró Bheithe,21.0,54.977778,-8.26
73,Ardmore,Kilderry,359.0,55.0777383,-7.268759012695426
74,Ardnableask,Tawnawully,10.0,54.6967887,-8.011708664038878
75,Ardnaditian,Manorcunningham,41.0,54.985032700000005,-7.594456271974701
76,Ardnagalliagh,Ballintra,10.0,54.58044135,-8.14341762526569
77,Ardnagannagh,Gleneely,28.0,54.78797289999999,-7.6744767531019376
78,Ardnagappary,Machaire Chlochair,327.0,55.0819343,-8.3163635
79,Ardnaglass (ED Clonleigh South),Clonleigh South,25.0,54.815278,-7.549722
80,Ardnaglass (ED Pettigoe),Pettigoe,80.0,54.5524709,-7.837418815378461
81,Ardnasool,Clonleigh North,38.0,54.8451786,-7.560387147728735
82,Ardpattan,Cavangarden,9.0,54.53179520000001,-8.163508100661904
83,Ardrumman,Castlewray,98.0,55.007499200000005,-7.630484967444117
84,Ards Beg,Gort an Choirce,316.0,55.11396085,-8.174159471703298
85,Ards Big,Rathmelton,17.0,55.02032215,-7.684558763712682
86,Ards Little,Rathmelton,22.0,55.018165,-7.702635971438027
87,Ards More,Gort an Choirce,88.0,55.12284765,-8.141378925077813
88,Arduns,Machaire Chlochair,50.0,55.0302961,-8.21340000072492
89,Ardvally,Maol Mosóg,12.0,54.7398068,-8.3806388
90,Ardvarnock Glebe,Figart,19.0,54.87253245,-7.647971871900389
91,Arlands,Inis Mhic an Doirn,75.0,55.00309915,-8.4344187863665
92,Arryheernabin,Fánaid Thuaidh,13.0,55.27,-7.640556
93,Altashane or Cabadooey,Carndonagh,63.0,55.2627826,-7.3316796
94,Attatantee,Machaire Chlochair,7.0,55.07810010000001,-8.216983441749054
95,Aughagault Big,Convoy,64.0,54.86503470000001,-7.734684700000001
96,Aughnish,Rathmelton,138.0,55.03915309999999,-7.608063878143477
97,Aught,Three Trees,233.0,55.12393825,-7.277726919168671
98,Avaltygort,Gleneely,51.0,54.7837007,-7.686292273656484
99,Backland,Clonleigh South,6.0,54.832466700000005,-7.549732021240988
100,Backlees,Stranorlar,17.0,54.8045069,-7.769133
101,Ballagh,Malin,35.0,55.3171588,-7.281846626618396
102,Ballaghderg,Gortnavern,464.0,54.9855855,-7.7252095
103,Ballard,Cill Ghabhlaigh,20.0,54.807369200000004,-7.965275699999999
104,Balleeghan (ED Greencastle),Greencastle,112.0,55.2247493,-6.981413405596781
105,Balleeghan (ED Manorcunningham),Manorcunningham,61.0,54.9798794,-7.5984575043858
106,Balleeghan Lower,Carthage,70.0,55.29885425,-7.223633134184843
107,Balleeghan Upper,Carthage,92.0,55.3003147,-7.2360022062214115
108,Balleelaghan,Malin,40.0,55.31328875,-7.273294821595838
109,Ballina,Rosnakill,18.0,55.19477325,-7.692013784202465
110,Ballincrick and Ballynabrocky,Fánaid Thuaidh,59.0,55.25807945,-7.664208628002554
111,Ballindrait,Clonleigh North,77.0,54.844167000000006,-7.525833
112,Ballinlough,Mintiaghs,43.0,55.21244265,-7.368011689951099
113,Ballintemple,Na Croisbhealaí,93.0,55.122074899999994,-8.092961194096645
114,Ballintlieve,Mintiaghs,45.0,55.22178085,-7.396891338477976
115,Ballintra (Aran Island),Árainn Mhór,89.0,54.979167000000004,-8.501389
116,Ballintra (ED Ballintra),Ballintra,115.0,54.5774828,-8.125183199999999
117,Balloor,Fánaid Thuaidh,31.0,55.077912600000005,-7.7449482000000005
118,Ballyannan,Desertegny,67.0,55.19545095,-7.46272285051888
119,Ballyara,Killybegs,41.0,54.6559625,-8.474867494244258
120,Ballyargus,Redcastle,229.0,55.166667000000004,-7.1666669999999995
121,Ballyarr,Ballyarr,99.0,55.02852515,-7.70471169607427
122,Ballyarr Glebe,Ballyarr,95.0,55.0343178,-7.70473735429541
123,Ballyarrell,Gleneely,58.0,54.78975605,-7.656611368984886
124,Ballybegly,Newtown Cunningham,67.0,54.990556000000005,-7.586944
125,Ballybegly Little,Manorcunningham,39.0,54.99894435,-7.5735552773199935
126,Ballybobaneen,Allt na Péiste,32.0,54.81766020000001,-7.924752073555249
127,Ballybodonnell,Dunkineely,10.0,54.62365815,-8.353861873310674
128,Ballyboe (ED Convoy),Convoy,83.0,54.8562987,-7.6558118707274625
129,Ballyboe (ED Corravaddy),Corravaddy,48.0,54.9250726,-7.7428805999999994
130,Ballyboe (ED Creeslough),An Craoslach,19.0,55.1096562,-7.9177299588317505
131,Ballyboe (ED Cross Roads),Na Croisbhealaí,114.0,55.14626365,-8.048894869642046
132,Ballyboe (ED Killea),Killea,16.0,54.9886612,-7.421010867669606
133,Ballyboe (ED Rathmelton),Rathmelton,155.0,55.04040815,-7.6507567671182874
134,Ballyboe Glencar,Letterkenny Rural,1809.0,54.9582478,-7.7438218999999995
135,Ballyboencurragh,Castlewray,35.0,54.99265655,-7.678528370944496
136,Ballybofey,Stranorlar,1506.0,54.7990639,-7.7819496
137,Ballybogan,Clonleigh South,28.0,54.80686105,-7.535709032945443
138,Ballybokeel,Rathmelton,9.0,55.033260399999996,-7.630007415373725
139,Ballybolauder,Templedouglas,22.0,54.98029165,-7.8457546787625505
140,Ballybotemple,An Clochán,8.0,54.826467799999996,-7.9166517763288295
141,Ballyboyle,Donegal,41.0,54.6409637,-8.1441356
142,Ballybrack,Moville,213.0,55.2111321,-7.0171141763763565
143,Ballybrollaghan,Tantallon,116.0,54.66479975,-8.23160317931162
144,Ballybulgan,Ballintra,27.0,54.59221735,-8.137283351469776
145,Ballybun,Cloghard,107.0,54.781110999999996,-7.610278
146,Ballybuninabber,An Tearmann,30.0,55.04898845,-7.884431665937803
147,Ballycallan,An Cheathrú Chaol,11.0,55.17156415,-7.621703050113645
148,Ballycharry,Turmone,65.0,55.26877655,-7.097680270765912
149,Ballyconnell,Na Croisbhealaí,165.0,55.14821379999999,-8.090329971642843
150,Ballyconnelly (ED Glenalla),Glenalla,33.0,55.07639925,-7.619882283860723
151,Ballyconnelly (ED Ballymacool),Ballymacool,51.0,54.92752610000001,-7.7876773
152,Ballycramsy,Malin,19.0,55.31455875,-7.3049392941705475
153,Ballycroy,Dunkineely,18.0,54.5925925,-8.417550370058231
154,Ballycushion,Killea,23.0,54.95199055,-7.501709848917952
155,Ballydermot,Ballintra,54.0,54.5830245,-8.06443206545715
156,Ballydevitt,Donegal,60.0,54.6761394,-8.1354071
157,Ballydevitt Beg,Donegal,110.0,54.6693546,-8.129920585156917
158,Ballyederlan,Dunkineely,24.0,54.604167000000004,-8.379167
159,Ballyederowen,Birdstown,462.0,55.05590245,-7.390347329184344
160,Ballygallan,Mín Charraigeach,19.0,54.9123568,-7.89771027138587
161,Ballygawley,Killymasny,22.0,54.8009284,-7.631139999999999
162,Ballygorman,Ardmalin,81.0,55.3575,-7.311667
163,Ballygreen,Rathmelton,16.0,55.037797399999995,-7.566218711732661
164,Ballyhanna,Carrickboy/Ballyshannon Urban,63.0,54.4977353,-8.176197508435493
165,Ballyhasky,Castleforward,431.0,54.99127245,-7.500310493638366
166,Ballyheerin,Fánaid Thiar,67.0,55.1961531,-7.7263674
167,Ballyhiernan,Fánaid Thuaidh,23.0,55.2396733,-7.712803991307247
168,Ballyholey Far,Kincraigy,54.0,54.90878335,-7.580480178604749
169,Ballyholey Near,Figart,66.0,54.89161435,-7.5756023003515764
170,Ballyhoorisky,Fánaid Thiar,22.0,55.245,-7.7425
171,Ballyhork,Fánaid Thiar,19.0,55.21039165,-7.735271027334066
172,Ballykeeran,Kilmacrenan,253.0,55.02537435,-7.765062198152402
173,Ballykenny (ED Ardmalin),Ardmalin,8.0,55.3408265,-7.297985074632287
174,Ballykenny (ED Glenalla),Glenalla,15.0,55.06414960000001,-7.603603813311688
175,Ballykergan,Allt na Péiste,41.0,54.803966,-7.9562419226691725
176,Ballykillowen,Laghy,29.0,54.6366373,-8.014507554353978
177,Ballykinard,Rosnakill,11.0,55.18616095,-7.6789293887546615
178,BallylaSt. (Raphoe South By),Castlefinn,45.0,54.805502000000004,-7.5460210000000005
179,Ballylawn (ED Castlecary),Castlecary,61.0,55.1893437,-7.086883240021473
180,Ballylawn (ED Manorcunningham),Manorcunningham,81.0,54.99090295,-7.585381827897764
181,Ballylennan,Feddyglass,60.0,54.88912270000001,-7.5194985
182,Ballylevin,Manorcunningham,21.0,54.98824739999999,-7.571212700000001
183,Ballyliffin,Ballyliffin,226.0,55.280311899999994,-7.393552900000001
184,Ballylin,Rathmelton,31.0,55.0478691,-7.575731723960666
185,Ballylosky,Glentogher,915.0,55.2360308,-7.2616558294211115
186,Ballyloughan,Killybegs,79.0,54.633611,-8.408611
187,Ballymacahil,Bonnyglen,33.0,54.68597535,-8.253535714821764
188,Ballymacarry,Buncrana Rural/Buncrana Urban,1913.0,55.14443585,-7.441892143340661
189,Ballymacarry Lower,Buncrana Urban,655.0,55.12474355000001,-7.453146649629169
190,Ballymacarthur,Greencastle,203.0,55.22055865,-7.001199365824318
191,Ballymacavany,Pettigoe,15.0,54.5494414,-7.8321521999999995
192,Ballymacaward,Ballyshannon Rural,109.0,54.51467625,-8.240127955707202
193,Ballymackilduff,Dawros,34.0,54.82024505,-8.42279155980108
194,Ballymacmoriarty,Ballyliffin,6.0,55.2941512,-7.366339874354939
195,Ballymacool,Ballymacool,833.0,54.9472497,-7.7640237999999995
196,Ballymacphadin,Cill Charthaigh,26.0,54.66143225,-8.590913532409566
197,Ballymagahy North,Grianfort,13.0,55.207775899999994,-7.666949657631406
198,Ballymagahy South,Rosnakill,13.0,55.19726105,-7.669260818496005
199,Ballymagan Upper and Lower and Clonblosk,Illies,295.0,55.1500265,-7.4258782692042065
200,Ballymagaraghy,Turmone,19.0,55.267714100000006,-7.0544073
201,Ballymagowan,Dunkineely,200.0,54.63558905,-8.350555407391889
202,Ballymagowan Lower,An Cheathrú Chaol,39.0,55.164934499999994,-7.676419800000001
203,Ballymagowan Upper,An Cheathrú Chaol,32.0,55.16902025,-7.664261612016578
204,Ballymagrorty,Cavangarden,7.0,54.55378345,-8.054096867406187
205,Ballymagrorty Irish,Ballintra,38.0,54.5556645,-8.141488967224566
206,Ballymagrorty Scotch,Ballintra,92.0,54.5658863,-8.137086594281781
207,Ballymaleel,Castlewray,109.0,54.98234870000001,-7.671238499999999
208,Ballymichael,Fánaid Thuaidh,20.0,55.2687949,-7.661968232416178
209,Ballymoney,Burt,10.0,55.037778,-7.506944
210,Ballymoon,An Leargaidh Mhór,10.0,54.65384,-8.566732765371484
211,Ballymore Lower,Ards,27.0,55.1600126,-7.916117171281511
212,Ballymore Upper,Ards,24.0,55.1549611,-7.9351845637313305
213,Ballymunterhiggin,Bundoran Rural,81.0,54.47911375,-8.189154121825434
214,Ballynabreen,Clonleigh South,61.0,54.8369609,-7.519649512394887
215,Ballynacarrick (ED Ballintra),Ballintra,63.0,54.56662315,-8.121760467523488
216,Ballynacarrick (ED Carrickboy),Carrickboy,35.0,54.498576,-8.203755000000001
217,Ballynacor,Gleneely,133.0,54.7826465,-7.713108643086973
218,Ballynacraig,Gort an Choirce,70.0,55.10418255,-8.164183674635428
219,Ballynaglack,Stranorlar,88.0,54.81611585,-7.79497574154844
220,Ballynahone (ED Fahan),Fahan,48.0,55.10229155,-7.421269030728962
221,Ballynakeeloge,Illies,13.0,55.161497,-7.377457560177025
222,Ballynakillew Mountain,Ballintra,20.0,54.59635550000001,-7.9989097154182
223,Ballynakilly (ED Inch Island)),Inch Island,32.0,55.0674459,-7.5182705340991065
224,Ballynakilly (ED Templedouglas),Templedouglas,36.0,54.95723725000001,-7.8436814954882506
225,Ballynally,Moville,965.0,55.2076882,-7.03746585508263
226,Ballynalost,Fánaid Thuaidh,5.0,55.25741985,-7.650687079028718
227,Ballynaman (ED Cloghan),An Clochán,18.0,54.8254458,-7.9958657359538785
228,Ballynaman (ED Gleneely),Gleneely,22.0,54.77598715000001,-7.704821011012491
229,Ballynarry,Buncrana Rural,91.0,55.15747935,-7.4778450750548355
230,Ballynascall,Mín an Lábáin,12.0,54.97102035,-7.949387823654221
231,Ballynashannagh,Rosnakill,9.0,55.179722,-7.643333
232,Ballynatone,An Clochán,34.0,54.82194985,-7.855445623498968
233,Ballyness,Na Croisbhealaí,153.0,55.1520644,-7.7924644
234,Ballyraine,Letterkenny Rural,960.0,54.953641299999994,-7.710742801962253
235,Ballyrattan,Castlecary,106.0,55.18534145,-7.097514760296062
236,Ballysaggart,Dunkineely,17.0,54.59400150000001,-8.39885604130534
237,Ballyscanlan Lower,Loch Caol,13.0,55.05883785,-7.744242242603788
238,Ballyscanlan Upper,Loch Caol,17.0,55.05762845,-7.755311432027959
239,Balwoges,Corkermore,35.0,54.6827906,-8.359725476397447
240,Banganboy,An Ghrafaidh,14.0,54.823129200000004,-8.169586068939394
241,Bangort,Cill Ghabhlaigh,9.0,54.7312456,-8.68627451536635
242,Barnes Lower,An Tearmann,33.0,55.073715,-7.825553033247854
243,Barnes Upper,An Tearmann,15.0,55.07241485,-7.847745519431404
244,Barrack,Gortnavern,49.0,54.9274569,-7.865386
245,Barrack or Ballymagig,Killymasny,59.0,54.933537300000005,-7.8683719
246,Baskill,Gleneely,27.0,55.24412125,-7.188177763626034
247,Bauville Keeloges and Clonglash,Buncrana Rural,176.0,55.1325202,-7.39930425891421
248,Bavan,An Leargaidh Mhór,94.0,54.6320077,-8.5433542296941
249,Bayhill,Rathmelton,9.0,55.03390079999999,-7.662120623104062
250,Baylet,Inch Island,24.0,55.054722,-7.461666999999999
251,Beagh,Dawros,35.0,54.79208829999999,-8.429062579895676
252,Beaghmore,Gleann Léithín,5.0,54.84757729999999,-8.175954843288274
253,Beaugreen Glebe,Dunkineely,27.0,54.632059999999996,-8.372908256085715
254,Beefan,Cill Ghabhlaigh,28.0,54.71930545,-8.740786959930148
255,Beefpark,Tantallon,6.0,54.64307505,-8.176588323718239
256,Behy,Ballyshannon Rural,48.0,54.5190216,-8.123849513663592
257,Belalt,Cloghard,33.0,54.543333,-7.889722
258,Belalt North,Templecarn,17.0,54.558789299999994,-7.9144094178037445
259,Belalt South,Templecarn,9.0,54.54353925,-7.925908500404273
260,Belcruit,Inis Mhic an Doirn,219.0,55.01235465,-8.386961576682149
261,Bellaganny,Gleann Gheis,5.0,54.765378500000004,-8.465460539081324
262,Bellanamore,Baile na Finne,50.0,54.869167000000004,-8.055556
263,Bellanascaddan,Edenacarnan,89.0,54.99112855,-7.751810877521753
264,Bellina,Na Croisbhealaí,335.0,55.130818999999995,-8.107514067593694
265,Beltany,Raphoe,60.0,54.84456035,-7.613295000849121
266,Beltany Lower,Dún Lúiche,92.0,55.1053012,-8.134635099999999
267,Beltany Mountain,Dún Lúiche,39.0,55.042919,-8.127943852794294
268,Beltany Upper,Dún Lúiche,53.0,55.0981549,-8.1349121
269,Billary,Pettigoe,22.0,54.54614695,-7.84228172585741
270,Bindoo,Allt na Péiste,26.0,54.822501100000004,-7.958169348347653
271,Binnion (ED St. Johnstown),St. Johnstown,10.0,54.90173420000001,-7.4989304564492985
272,Binnion (ED Straid),Straid,56.0,55.278558499999995,-7.427964625060872
273,Binroe,Killybegs,66.0,54.63121475,-8.420827634238403
274,Birchhill,Clogher,72.0,54.6760419,-8.037421215128587
275,Bircog,Pettigoe,49.0,54.5565714,-7.834277883311173
276,Birdstown,Clonleigh South,31.0,54.86083299999999,-7.472778
277,Birra,Ballintra,10.0,54.5695253,-8.174169031134683
278,Blackrepentance,Castlefinn,7.0,54.83855129999999,-7.665530594102645
279,Blackrock,Clonleigh North,10.0,54.8563703,-7.4762583
280,Blacks Glen,Rathmelton,11.0,55.0509348,-7.661815862777778
281,Blairstown,Killygordon,31.0,54.8049465,-7.6243647
282,Blanket Nook (Raphoe North By),Castleforward,17.0,55.009437,-7.5299190000000005
283,Bogagh,Raphoe,14.0,54.665,-8.613889
284,Bogagh Glebe,Cill Charthaigh,33.0,54.66108785,-8.612265462867686
285,Bogay,Castlewray,59.0,54.994443999999994,-7.4311110000000005
286,Bogay Glebe,Castleforward,12.0,54.9989009,-7.446722084185813
287,Bohanboy,Killygordon,11.0,54.81563415,-7.684032373113295
288,Boheolan,Templedouglas,23.0,55.0076353,-7.8621469890298465
289,Bohirril,Gortnavern,61.0,55.00199665,-7.705339100180652
290,Bohirril Park,Gortnavern,19.0,55.0096907,-7.709710342202463
291,Bohullion Lower,Burt,87.0,55.0138035,-7.477804300000001
292,Bohullion Upper,Burt,43.0,55.01400805,-7.455180237532994
293,Bomany,Ballymacool,181.0,55.138521600000004,-7.413702799999999
294,Bonnyglen,Bonnyglen,11.0,54.663056000000005,-8.257778
295,Booragh,Rathmelton,23.0,55.00615445,-7.689918242740923
296,Boyagh,Clonleigh North,28.0,54.8763932,-7.47311293443479
297,Boyoughter,Leitir Mhic an Bhaird,100.0,54.86806329999999,-8.2936542
298,Braade (ED Annagary),Anagaire,93.0,55.0408976,-8.34219213441062
299,Braade (ED Clonleigh North),Clonleigh North,32.0,54.8571937,-7.487943389841847
300,Braade Upper,Gleann Cholm Cille,15.0,54.7072759,-8.6648548910816
301,Bracky,Gleann Gheis,47.0,54.7516474,-8.431221058372753
302,Braehead,Figart,24.0,54.8732036,-7.620847707823532
303,Bready,Killea,22.0,54.96079985,-7.483720685163016
304,Breaghy (ED Ards),Ards,45.0,55.182660999999996,-7.919143146680829
305,Breaghy (ED Castlefinn),Castlefinn,14.0,54.8194914,-7.599196187098862
306,Breaghy (ED Rathmelton),Rathmelton,29.0,55.0178348,-7.669374652021464
307,Bredagh Glen,Moville,246.0,55.2166461,-7.064082748444296
308,Bree,Ardmalin,79.0,55.347221999999995,-7.306389
309,Breen,Convoy,13.0,54.8794569,-7.758182475441469
310,Breenagh,Suí Corr,42.0,54.931389,-7.907222
311,Brenter,Inver,51.0,54.63923615,-8.335761742486683
312,Bridge End or Drummonaghan,Rathmelton,169.0,55.036446,-7.6619579
313,Brinlack,Mín an Chladaigh,343.0,55.11666700000001,-8.283333
314,Broadlea,Feddyglass,8.0,54.86849300000001,-7.546614553927003
315,Broadpath,Convoy,23.0,54.84780290000001,-7.6894940755045225
316,Brockagh (ED Cloghan),An Clochán,22.0,54.8526152,-7.935476543194853
317,Brockagh (ED Crovehy),Cró Bheithe,9.0,54.945556,-8.243333
318,Brockagh (ED Creenasmear),Críoch na Sméar,22.0,55.08021899999999,-7.96661225483079
319,Brockagh (ED Treantamucklagh),Treantaghmucklagh,41.0,54.920731999999994,-7.535989
320,Brookfield,Donegal,162.0,54.643686599999995,-8.09553399032777
321,Bruckless,Dunkineely,116.0,54.637075,-8.3867158
322,Bunawack,Cró Bheithe,17.0,54.99050805,-8.278206543043936
323,Bunbeg,Machaire Chlochair,8.0,55.059722,-8.300278
324,Buncronan,Tantallon,17.0,54.63106835,-8.276566859005452
325,Buncroobog,Na Gleannta,35.0,54.79401515,-8.245189377420807
326,Bungosteen,Killybegs,21.0,54.6747983,-8.417609522942845
327,Bunnagee,Letterkenny Rural,234.0,54.9405296,-7.698131299999999
328,Bunnamayne,Burt,410.0,55.030278,-7.388611
329,Bunnaton,Cnoc Colbha,28.0,55.173056,-7.580833
330,Burnside,Figart,25.0,54.869683,-7.629663900795272
331,Burnthaw,St. Johnstown,18.0,54.91280310000001,-7.483020939120673
332,Burtonport,Inis Mhic an Doirn,47.0,54.979977000000005,-8.4208746
333,Cabra Brook,Templedouglas,39.0,54.97751409999999,-7.861600540989118
334,Cabra Glebe,Templedouglas,12.0,54.97023335,-7.869480384145634
335,Cabry,Whitecastle,82.0,55.136801899999995,-7.2040712
336,Calhame (ED Clonleigh South),Clonleigh South,27.0,54.829553000000004,-7.5461350000000005
337,Calhame (ED Dunkineely),Dunkineely,84.0,54.6504692,-8.3775208
338,Calhame (ED Dunlewy),Dún Lúiche,17.0,55.12376245,-8.116299030510262
339,Calhame (ED Killygordon),Killygordon,48.0,54.81073405,-7.671971212622263
340,Calhame (ED Urney West),Urney West,5.0,54.7613546,-7.577786541548929
341,Calhame or Montgomery's fort,Convoy,20.0,54.87595699999999,-7.674288000000001
342,Callan,Lettermore,76.0,54.856667,-7.762222
343,Callanacor,Lettermore,89.0,54.8585192,-7.739140739513375
344,Camblestown,Castlewray,63.0,54.97785145,-7.669645511873869
345,Camlin,Carrickboy,10.0,54.494969999999995,-8.193467
346,Camp,Ballyshannon Rural,214.0,54.503974850000006,-8.177458560909223
347,Cappagh,Gleann Cholm Cille,46.0,54.62865065,-8.678869712257097
348,Cappry,Dooish,759.0,54.8,-7.8125
349,Cappry (Graham),Dooish,26.0,54.79165285000001,-7.8088744342884615
350,Carlan Lower,An Cheathrú Chaol,12.0,55.16451479999999,-7.6551735
351,Carlan Upper,An Cheathrú Chaol,97.0,55.15574445,-7.648500624255794
352,Carmoney,Creamhghort,13.0,55.13750685,-7.72775825216794
353,Carn (ED Gleneely),Gleneely,93.0,54.77585035,-7.749986445876384
354,Carn (ED Pettigoe),Pettigoe,31.0,54.574167,-7.840555999999999
355,Carn High (ED Rathmelton),Rathmelton,49.0,55.0584576,-7.6386387000000004
356,Carn Low,Rathmelton,23.0,54.796828399999995,-7.7325637
357,Carnagarve,Moville,151.0,55.20963225,-7.026040564678251
358,Carnaghan,Inch Island,27.0,55.0592829,-7.493440700000001
359,Carnagore,Glen,27.0,55.1487875,-7.8030136
360,Carnamogagh Lower,Letterkenny Rural,973.0,54.9775907,-7.7199477
361,Carnamogagh Upper,Letterkenny Rural,1567.0,54.97381875,-7.7310531912172555
362,Carnamoyle,Kilderry,188.0,55.07761429999999,-7.312010000000001
363,Carnashannagh (ED Fahan),Fahan,67.0,55.06557030000001,-7.4137767899207745
364,Carnatreantagh,Templedouglas,69.0,55.00484165,-7.833617085627432
365,Carnbeagh North,Clogher,42.0,54.66718565,-8.040561431403296
366,Carnbeagh South,Clogher,14.0,54.6638029,-8.040216708928572
367,Carnboy,Anagaire,13.0,55.058516299999994,-8.339894051052983
368,Carndoagh,Carndonagh,68.0,55.26656335,-7.334829706974594
369,Carngarrow,Cnoc Colbha,21.0,55.1602769,-7.5700905345646685
370,Carnowen,Castlefinn,88.0,54.831737399999994,-7.624501423236492
371,Carnshannagh (ED Feddyglass),Feddyglass,12.0,54.8893228,-7.551209064119472
372,Carntressy,Templecarn,10.0,54.548933999999996,-7.887174000000001
373,Carntullagh,Killybegs,24.0,54.624444,-8.430278
374,Carradoan,Rathmullan,13.0,55.1270498,-7.54699055742903
375,Carran Upper and Lower,An Cheathrú Chaol,31.0,55.185243500000006,-7.627717642446885
376,Carranadore,Cloghard,32.0,54.78882125,-7.6398026644413255
377,Carrick Lower,Gleann Cholm Cille,147.0,54.66156215,-8.652589847357293
378,Carrick Upper,Gleann Cholm Cille,181.0,54.612058600000005,-8.0943224
379,Carrick (ED Cranford),Creamhghort,67.0,55.165902100000004,-7.746583887987758
380,Carrick (ED Killygordon),Killygordon,49.0,54.80768135,-7.6177163179601886
381,Carrick (ED Meenaclady),Mín an Chladaigh,341.0,55.139437,-8.23033
382,Carrick (ED Templedouglas),Templedouglas,58.0,54.9980605,-7.864433393666232
383,Carrick Upper and Lower Barr,Laghy,23.0,54.61411045,-8.000227179396862
384,Carrick West,Laghy,36.0,54.6104515,-8.110720915010129
385,Carrickabraghy,Ballyliffin,16.0,55.31102335,-7.364885878912911
386,Carrickadawson,Feddyglass,35.0,54.903338,-7.556360000000001
387,Carrickafodan (ED Gleneganon),Glennagannon,200.0,55.26347320000001,-7.238382878152869
388,Carrickanee,Inch Island,60.0,55.062358200000006,-7.473158948875764
389,Carrickart,Carraig Airt,274.0,55.17717510000001,-7.794139200000001
390,Carrickatimpan,Mín an Lábáin,8.0,54.9683659,-8.059601977815008
391,Carrickatlieve Glebe,Ard an Rátha,31.0,54.73474615,-8.322725174184644
392,Carrickballydooey,Kincraigy,20.0,54.939718500000005,-7.612903724227848
393,Carrickboy,Ballyshannon Urban,372.0,54.4957885,-8.19629785430606
394,Carrickbrack (Raphoe North By),Convoy,27.0,54.849722,-7.643333
395,Carrickbrack (Raphoe South By),Convoy,45.0,54.849722,-7.643333
396,Carrickbreeny,Ballintra,15.0,54.58954805,-8.101548734743723
397,Carrickfin,Anagaire,12.0,55.05349939999999,-8.33102367011492
398,Carrickmagrath,Goland,232.0,54.7765986,-7.809754671577358
399,Carrickmaquigley,Redcastle,210.0,55.17939079999999,-7.155176899568772
400,Carrickmore,St. Johnstown,58.0,54.6329156,-7.9535132
401,Carricknagore,Killybegs,83.0,54.649848,-8.412672
402,Carricknahorna,Cavangarden,48.0,54.9616755,-8.5017229
403,Carricknamanna,Killygordon,109.0,54.8073088,-7.6976510992376115
404,Carricknamart,Kincraigy,67.0,54.91795989999999,-7.613472583765968
405,Carricknamoghil,Killybegs,65.0,54.6730338,-8.429813186505397
406,Carricknashane,Killygordon,62.0,54.8059272,-7.639698302471433
407,Carrickrory,Pettigoe,4.0,54.56046875,-7.869547088013072
408,Carrickshandrum,Gleneely,42.0,54.796282999999995,-7.721395569363433
409,Carrickybressil,Millford,8.0,55.081842,-7.729830000000001
410,Carrigans,Killea,165.0,54.950925899999994,-7.4294746
411,Carroghill,Mintiaghs,40.0,55.2016368,-7.384273229589227
412,Carrontlieve,Fahan,277.0,55.08314300000001,-7.46137
413,Carrowbeg,Turmone,16.0,55.2597632,-7.052420835435632
414,Carrowblagh (ED Glentogher),Glentogher,131.0,55.20341750000001,-7.2812216999999935
415,Carrowblagh (ED Turmone),Turmone,12.0,55.2452022,-7.110336026607559
416,Carrowblagh or Leckemy,Turmone,33.0,55.2452022,-7.110336026607559
417,Carrowcanon,Na Croisbhealaí,147.0,55.14523455,-8.078173802407463
418,Carrowcashel,Rathmelton,21.0,55.012337699999996,-7.619086229245398
419,Carrowen,Burt,48.0,55.030556000000004,-7.4975
420,Carrowhugh,Greencastle,97.0,55.22837955,-6.966401284112147
421,Carrowkeel (ED Carrowkeel),An Cheathrú Chaol,198.0,55.1373255,-7.6663937
422,Carrowkeel (ED Whitecastle),Whitecastle,218.0,55.1267307,-7.198558167897889
423,Carrowkeel Glebe,Grianfort,12.0,55.215281999999995,-7.689991872498203
424,Carrowmenagh,Turmone,51.0,55.25997660000001,-7.0695981
425,Carrowmore (ED Gleneely),Gleneely,120.0,55.2471532,-7.2031103245318135
426,Carrowmore (ED Malin),Malin,141.0,55.3100614,-7.257240042216813
427,Carrowmore or Glentogher,Glentogher,73.0,55.17851435,-7.257966984142159
428,Carrowmullin,Fahan,76.0,55.09230325,-7.45774597593932
429,Carrownaff,Castlecary,119.0,55.18526310000001,-7.059243870726345
430,Carrownaganonagh,Loch Caol,29.0,55.08359889999999,-7.772226900308503
431,Carrownamaddy (ED Burt),Burt,94.0,55.03736995,-7.423168856203393
432,Carrownamaddy (ED Creenasmear),Críoch na Sméar,31.0,55.131869900000005,-7.970595727820115
433,Carrownasaul,Loch Caol,22.0,55.067789000000005,-7.779498009418606
434,Carrowreagh (ED Burt),Burt,135.0,55.024915,-7.414412701740884
435,Carrowreagh (ED Gleneganon),Glennagannon,192.0,55.22054375,-7.236504122154146
436,Carrowreagh (ED Knockalla),Cnoc Colbha,14.0,55.15306355,-7.593032804159298
437,Carrowreagh or Craignacally,Ballyliffin,68.0,55.298733,-7.3370690000000005
438,Carrowtrasna (ED Gartan),Gartán,25.0,55.02032850000001,-7.904984875793607
439,Carrowtrasna (ED Greencastle),Greencastle,74.0,55.23528765,-6.959279684721403
440,Carryblagh,Grianfort,27.0,55.223611,-7.623056
441,Carrygally,Corravaddy,70.0,54.93167165,-7.720278195061505
442,Carrygalt,Rathmelton,9.0,55.025608999999996,-7.598121700069307
443,Carthage,Carthage,181.0,55.305275449999996,-7.177225984600693
444,Casey Glebe,Dún Fionnachaidh,39.0,55.16705195,-7.965393361865578
445,Cashel (ED Ballyshannon Rural),Ballyshannon Rural,67.0,54.53694399999999,-8.201944000000001
446,Cashel (ED Doe Castle),Caisleán na dTuath,52.0,55.13504770000001,-7.864141830945713
447,Cashel (ED Dunlewy),Dún Lúiche,73.0,55.11291325,-8.13134010039915
448,Cashel (ED Gleneely),Gleneely,78.0,55.259313,-7.212301686724227
449,Cashel (ED Glentogher),Glentogher,65.0,55.223333,-7.274444
450,Cashel (ED Malinbeg),Málainn Bhig,116.0,54.6938561,-8.717959258557043
451,Cashel (ED Mulmosog),Maol Mosóg,30.0,54.737221999999996,-8.420556
452,Cashel Glebe,Fánaid Thiar,18.0,55.23455105,-7.73995596089095
453,Cashelard,Cliff,186.0,54.52054445,-8.082464025
454,Cashelcarn,Cill Charthaigh,45.0,54.64222585,-8.585502107417465
455,Cashelcummin,Killybegs,55.0,54.6394312,-8.449431353811567
456,Casheleenan,Loch Caol,36.0,55.06713245,-7.798485227422311
457,Cashelenny,Grousehall,8.0,54.61336945,-7.7329672054464496
458,Cashelfean,Dunkineely,29.0,54.63884175,-8.357951409658657
459,Cashelgay,Edenacarnan,43.0,55.0040635,-7.75841930298021
460,Cashelgolan,Maas,24.0,54.8407679,-8.406587599999998
461,Cashelin,Cloghard,10.0,54.7781404,-7.625003114863048
462,Cashellackan,Ballyshannon Rural,26.0,54.526111,-8.196667
463,Cashelmore,Ards,87.0,55.216072700000005,-7.731683
464,Cashelnagor,Dún Lúiche,73.0,55.0866642,-8.1274161
465,Casheloogary,Inver,56.0,54.683648600000005,-8.302211326304445
466,Cashelpreaghan,Grianfort,14.0,55.21294125,-7.658072837339778
467,Cashelreagh,Templedouglas,29.0,54.94565335,-7.865009275226782
468,Cashelreagh Glebe,Killybegs,42.0,54.65227545000001,-8.396695113019128
469,Cashelshanaghan,Castlewray,189.0,54.999178,-7.66122
470,Casheltown (ED Corkemore),Corkermore,37.0,54.659628000000005,-8.36833
471,Castlebane (ED Dunfanaghy),Dún Fionnachaidh,15.0,55.16780295,-8.003290005035977
472,Castlebane (ED Stranorlar),Stranorlar,25.0,54.81364485,-7.744823274775218
473,Castleblaugh,Newtown Cunningham,40.0,54.96455985,-7.553929084136213
474,Castlecooly,Burt,55.0,55.025572700000005,-7.470586891677362
475,Castledoe,Caisleán na dTuath,44.0,55.13600175000001,-7.870205658545988
476,Castledowey,Treantaghmucklagh,95.0,54.922141,-7.5639806
477,Castlefinn,Castlefinn,186.0,54.80338470000001,-7.5931697
478,Castleforward Demesne,Castleforward,79.0,54.999803,-7.4926262999999995
479,Castlequarter (ED Fahan),Fahan,4.0,55.07621120000001,-7.444744123272597
480,Castlequarter (ED Inch Island),Inch Island,36.0,55.05478589999999,-7.4965209
481,Castlethird,Killea,54.0,54.951621499999995,-7.478581778878597
482,Castletown,St. Johnstown,34.0,54.923619099999996,-7.490993590764905
483,Castlewray,Castlewray,36.0,54.980270700000005,-7.6559873
484,Castruse,Killea,19.0,54.99610965,-7.422555721278392
485,Cavan (ED Clonleigh North),Clonleigh North,65.0,54.86273135,-7.503206263345401
486,Cavan (ED Dunkineely),Dunkineely,14.0,54.61680645,-8.360227196510298
487,Cavan Lower,Killygordon,77.0,54.8054303,-7.71892211818276
488,Cavan Upper,Killygordon,57.0,54.82133745,-7.704851088884602
489,Cavanacaw,St. Johnstown,47.0,54.8932667,-7.486916924536965
490,Cavanacor,Clonleigh North,5.0,54.84865245,-7.515162775189958
491,Cavanaweery,Urney West,16.0,54.79119470000001,-7.580964808491371
492,Cavangarden,Cavangarden,75.0,54.530556000000004,-8.141111
493,Cherrymount,Carrickboy,18.0,54.492014000000005,-8.155031
494,Church Hill,Mín an Lábáin,77.0,54.9890495,-7.8913814
495,Churchland Quarters,Carndonagh,1919.0,55.253038000000004,-7.261102
496,Churchtown (ED Clonleigh South),Clonleigh South,7.0,54.8088743,-7.530408199999999
497,Churchtown (ED Gartan),Gartán,16.0,55.0172378,-7.923751062626756
498,Claggan (ED Dunfanaghy),Dún Fionnachaidh,44.0,55.2030191,-7.9915304
499,Claggan (ED Greenfort),Grianfort,13.0,55.20867505,-7.639419734249005
500,Claggan (ED Millford),Millford,17.0,55.0965369,-7.669854244467744
501,Claggan South,Mín an Lábáin,21.0,54.97991125,-7.933668697525045
502,Clanboorhin,Donegal,30.0,54.678577100000005,-8.141482509069286
503,Claragh,Ballyarr,9.0,55.302198600000004,-7.335171000000001
504,Clarcam,Clogher,65.0,54.66623165,-8.053605282456175
505,Clarcarricknagun,Donegal,49.0,54.6580655,-8.07748841144798
506,Clardrumnagahan,Clogher,12.0,54.67489845,-8.06587593696435
507,Clare,Castlecary,140.0,55.1829967,-7.114790433714248
508,Clarlougheask,Clogher,33.0,54.6791377,-8.051497231278029
509,Clashygowan,St. Johnstown,13.0,54.94124100000001,-7.485499666729199
510,Cleenagh,Illies,70.0,55.15060935,-7.4111900412997285
511,Cleenderry,An Machaire,26.0,54.9252625,-8.416511785
512,Cleengort,Na Gleannta,19.0,54.84814935,-8.287899555156546
513,Clehagh,Straid,195.0,55.270007799999995,-7.4375101
514,Cloghan,Cill Ghabhlaigh,5.0,54.8420105,-7.9360755
515,Cloghan Beg,An Clochán,88.0,54.84253705,-7.930885976207008
516,Cloghan More,An Clochán,32.0,54.8341681,-7.921205154551367
517,Cloghbolie (ED Ballyshannon Rural),Ballyshannon Rural,39.0,54.53236015,-8.2458777071875
518,Cloghbolie (ED Maghery),An Machaire,16.0,54.8928481,-8.3042114
519,Cloghboy,Gleann Gheis,50.0,54.775,-8.492778
520,Cloghcor (Aran Island),Árainn Mhór,21.0,54.97669079999999,-8.492403300000001
521,Clogher,Clogher,134.0,54.837222,-8.425556
522,Clogher West,Maas,26.0,54.8336995,-8.424160369284145
523,Clogheravaddy,Bonnyglen,15.0,54.71149795,-8.271529751582682
524,Clogherdillure,Inis Mhic an Doirn,12.0,54.9909875,-8.418242006569766
525,Cloghfin (ED Castlefinn),Castlefinn,48.0,54.794167,-7.551944000000001
526,Cloghfin (ED Clonleigh North),Clonleigh North,49.0,54.843889000000004,-7.576111
527,Cloghfin (ED Killea),Killea,89.0,54.9464502,-7.4420678869955506
528,Cloghglass,Inis Mhic an Doirn,45.0,55.0834152,-7.7404329
529,Cloghgore,Convoy,9.0,54.87516915,-7.687284013280361
530,Cloghore,Carrickboy,67.0,54.483332999999995,-8.1
531,Cloghroe (ED Edenacarnan),Edenacarnan,18.0,55.009935899999995,-7.7827363169680766
532,Cloghroe (ED Lettermore),Lettermore,102.0,54.851389000000005,-7.777778
533,Clonbara,Na Croisbhealaí,60.0,55.12074499999999,-8.083096000000001
534,Clonbeg Glebe,An Craoslach,20.0,55.1365135,-7.909222984487501
535,Clonca,Culdaff,65.0,55.27072605,-7.180657636730585
536,Cloncarney,Templedouglas,61.0,55.012819400000005,-7.847974423373621
537,Clonclayagh,An Clochán,34.0,54.8346572,-7.94325899727715
538,Clonconwal,Ard an Rátha,17.0,54.77893185,-8.370036134388915
539,Clondallan,Rathmullan,30.0,55.129721499999995,-7.53669563907394
540,Clonkilly More,Kilmacrenan,43.0,55.035363,-7.804245207183207
541,Clonmany Glebe,Straid,75.0,55.2377051,-7.424356480174563
542,Clonmass,Ards,35.0,55.16842095,-7.896831204788986
543,Clonmore,Ards,23.0,55.13854015,-7.921334175161439
544,Clontallagh,Ros Goill,31.0,55.21202485000001,-7.820088930347271
545,Clontyseer,Carrickboy,25.0,54.4769788,-8.159172066182082
546,Cloon,Castleforward,19.0,54.9707813,-7.4460201
547,Cloonarrell,Gleneely,15.0,54.7773693,-7.659982432246243
548,Clooney (ED Maas),Maas,35.0,54.839167,-8.409444
549,Clooney (ED Rathmelton),Rathmelton,74.0,55.054722,-7.638056
550,Clooney and Gortnamona,Fánaid Thiar,7.0,55.20269355,-7.731971026843762
551,Cloontagh,Ballyliffin,404.0,55.2472152,-7.3675977
552,Coguish,Cró Chaorach,17.0,54.67814815,-8.57090641788815
553,Colehill,Castleforward,320.0,55.00164275,-7.507486416289448
554,Commeen (ED Cloghan),An Clochán,55.0,54.81916700000001,-7.975278
555,Commeen (ED Doocharry),An Dúchoraidh,14.0,54.948333,-8.128333
556,Common (ED Figart),Figart,69.0,54.88868645,-7.610713516979103
557,Common (ED Glengesh),Gleann Gheis,35.0,54.7431775,-8.429478943139433
558,Coneyburrow,Clonleigh South,239.0,54.82613610000001,-7.489155375212415
559,Connaghkinnagoe,Illies,43.0,55.166292000000006,-7.364707451544849
560,Contycro,Málainn Bhig,14.0,54.70100585,-8.69929221368379
561,Convoy Demesne,Convoy,34.0,54.8615858,-7.6934932085420735
562,Convoy Townparks,Convoy,652.0,54.86241305,-7.669696036146918
563,Conwal,Ballymacool,86.0,54.940647399999996,-7.780968
564,Cool Beg,Ballyshannon Rural,19.0,54.542424,-8.221009
565,Cool More,Ballyshannon Rural,24.0,54.54157325,-8.212552805411438
566,Cool Upper,Creamhghort,49.0,55.12223365,-7.725111998177884
567,Cooladawson,Killygordon,21.0,54.8120192,-7.723658787428298
568,Cooladerry (ED Fanad North),Fánaid Thuaidh,29.0,55.25875565,-7.676945184633743
569,Cooladerry (ED Raphoe),Raphoe,29.0,54.8616238,-7.602083803196095
570,Coolaghy,Feddyglass,11.0,54.8648318,-7.5714815
571,Coolatee,Clonleigh North,71.0,54.85086939999999,-7.475639291033341
572,Coolback,Grianfort,6.0,55.2296095,-7.691774780940619
573,Coolboy Big,Gortnavern,144.0,55.004568299999995,-7.742885863431116
574,Coolboy Little,Gortnavern,20.0,54.9959866,-7.7382309000000005
575,Coolcholly,Ballyshannon Rural/Ballyshannon Urban,336.0,54.50829115,-8.191851888819562
576,Coolshangan,Inver,64.0,54.6537305,-8.296447502066423
577,Coolvoy,Gleann Léithín,18.0,54.900634200000006,-8.193392401305491
578,Cooly,Castlecary,67.0,55.2045881,-7.097982534544197
579,Coolyslin,Urney West,74.0,54.787377899999996,-7.5896273
580,Copany,Tullynaught,50.0,54.64758805,-8.033252281029597
581,Cor,Leitir Mhic an Bhaird,18.0,54.847786850000006,-8.348495299994635
582,Corcam,Killygordon,6.0,54.806389,-7.7225
583,Corcashy,Convoy,13.0,54.83597075,-7.711596080054095
584,Corcreggan,Dún Fionnachaidh,27.0,55.1661398,-7.995237589384493
585,Corcullion,Castlefinn,22.0,54.80661635,-7.580047347373602
586,Corderry,Mín an Lábáin,26.0,54.975,-7.937778
587,Corgary,Knock,170.0,54.77358255,-7.790175950868656
588,Corker More,Corkermore,28.0,54.70568085,-8.357855210632184
589,Corkey,Kincraigy,94.0,54.9324889,-7.6371883805570615
590,Corlacky,An Clochán,46.0,54.82814525,-7.8896795824818975
591,Corlea (ED Cliff),Cliff,40.0,54.49576815,-8.095314950953291
592,Cormakilly,Urney West,8.0,54.779167,-7.588611
593,Cormullin,Laghy,29.0,54.62263245,-8.029590490293543
594,Cornabrogue,Gleneely,13.0,54.753333,-7.688611
595,Cornagill,Castlewray,108.0,54.9669007,-7.6717607999999995
596,Cornagillagh,Convoy,15.0,54.8855196,-7.67290521511841
597,Cornagullion,Mín an Lábáin,14.0,54.9596845,-7.949133382462963
598,Corncamble,Castleforward,5.0,54.9756257,-7.467296784587573
599,Corporation,Killybegs,585.0,54.6474467,-8.432625006453488
600,Corracramph,Tawnawully,11.0,54.71646645,-8.026986380922397
601,Corradooey (ED Convoy),Convoy,20.0,54.82992975000001,-7.6906066082913505
602,Corradooey (ED Gleneely),Gleneely,29.0,54.74032149999999,-7.693033663497204
603,Corraffrin,Knock,70.0,54.770832999999996,-7.771111
604,Corraine,Allt na Péiste,67.0,54.791412750000006,-7.8749902883926
605,Corranagh,Magheraboy,191.0,54.923874899999994,-7.709786299999999
606,Corraness Glebe,Ard an Rátha,7.0,54.764906,-8.341205
607,Corry,Grianfort,21.0,55.218599399999995,-7.649289543971309
608,Corveen (ED Clogher),Clogher,43.0,54.68444745,-8.041057685389456
609,Corveen (ED Meenaclady),Mín an Chladaigh,6.0,55.136252,-8.289342
610,Cottian,Kilmacrenan,17.0,55.0195841,-7.8015531000000005
611,Cottown,Raphoe,8.0,54.8383004,-7.596637079681838
612,Court,Loch Caol,30.0,55.06904565,-7.722166092974115
613,Coxtown,Ballintra,23.0,54.59881329999999,-8.1080425
614,Craghy (ED Dunglow),An Clochán Liath,21.0,54.94667925,-8.31032801657868
615,Craig (ED Creeslough),An Craoslach,15.0,55.10052825,-7.9233662883529865
616,Craig (ED Kilderry),Kilderry,237.0,55.05703165,-7.286825048181247
617,Craigmaddyroe Far,Rathmullan,40.0,55.08883185,-7.5889230278358655
618,Craigs (ED Figart),Figart,8.0,54.8834548,-7.596289189762702
619,Craigtown (ED Cross Roads),Na Croisbhealaí,23.0,55.12036115,-8.101291660170045
620,Craigtown (ED Fahan),Fahan,23.0,55.0868712,-7.440399969487769
621,Cranford,Creamhghort,138.0,55.143889,-7.696389
622,Crannogeboy,Gleann Gheis,47.0,54.770832999999996,-8.469167
623,Cranny Lower,Bonnyglen,106.0,54.653563600000005,-8.270243940988067
624,Cratlagh,Millford,67.0,55.101515,-7.731783691087999
625,Creaghadoos,Feddyglass,113.0,54.88666800000001,-7.493483199999999
626,Creatland,St. Johnstown,44.0,54.899596499999994,-7.48560000859562
627,Creehennan,Whitecastle,51.0,55.14209150000001,-7.187653599999999
628,Creenasmear,Críoch na Sméar,14.0,55.11223775000001,-7.962362933607053
629,Creeslough,An Craoslach,300.0,55.1222693,-7.9084618
630,Creevagh,Glen,24.0,55.138889,-7.852222
631,Creeve,Castleforward,31.0,54.938954,-7.7516569
632,Creeve (Smith),Ballymacool,576.0,54.93784305,-7.7496678961937775
633,Creeve Glebe,Ballymacool,89.0,54.93562935,-7.762083534239974
634,Creeveoughter,Cnoc Colbha,38.0,55.13973405,-7.599537950443268
635,Creevins,Tantallon,36.0,54.61929755,-8.283550967248065
636,Creevy,Ballyshannon Rural,157.0,54.5311329,-8.2472469
637,Creggan (ED Figart),Figart,19.0,54.88010485,-7.643630084501058
638,Creggan (ED Stranorlar),Stranorlar,126.0,54.8156221,-7.804663499999999
639,Crevary Lower,Rathmullan,20.0,55.08992925,-7.572829579247482
640,Crevary Upper,Rathmullan,35.0,55.09567465000001,-7.566947018750002
641,Crislaghkeel,Fahan,39.0,55.081240599999994,-7.4223569000000005
642,Crislaghmore,Fahan,108.0,55.07718275,-7.413106583011961
643,Croagh (ED Corkemore),Corkermore,34.0,54.708327000000004,-8.346636
644,Croaghan (ED Clonleigh South),Clonleigh South,8.0,54.826621100000004,-7.542979304037612
645,Croaghan (ED Rathmelton),Rathmelton,62.0,55.02994285,-7.5918424005057465
646,Croaghan (ED Rosnakill),Rosnakill,19.0,55.21273420000001,-7.698597901392064
647,Croaghbeg,An Leargaidh Mhór,22.0,54.6246809,-8.561994699999998
648,Croaghlin (ED Glencolumbkille),Gleann Cholm Cille,18.0,54.6242988,-8.667498293888242
649,Croaghlin (ED Killybegs),Killybegs,58.0,54.65017635,-8.441621524990005
650,Croaghnashallog,An Clochán Liath,120.0,54.9339391,-8.3493022
651,Croaghross,Grianfort,33.0,55.2107457,-7.623440834133613
652,Crockglass,Whitecastle,31.0,55.1407843,-7.9613803
653,Crocknagapple,Maol Mosóg,6.0,54.733332999999995,-8.335278
654,Crocknageeragh,An Clochán Liath,102.0,55.23247979999999,-7.640908199999999
655,Crocknamurleog,Ros Goill,99.0,55.19989015,-7.842314635468957
656,Crockraw,Mín an Lábáin,15.0,54.9785065,-7.918234158649481
657,Crohy,An Machaire,70.0,54.91194399999999,-8.441944
658,Crohyboyle,An Clochán Liath,31.0,54.9772946,-8.3099617
659,Crolly,Machaire Chlochair,119.0,55.01446345,-8.243992919097469
660,Cronaguiggy,Machaire Chlochair,35.0,55.009151,-8.271927
661,Cronalaghy,Gleneely,34.0,54.737821700000005,-7.733753
662,Cronkeeran,Maol Mosóg,42.0,54.747222,-8.376667
663,Cross (ED Killea),Killea,24.0,54.955278,-7.486944
664,Cross (ED Whitecastle),Whitecastle,28.0,55.1548002,-7.230114396660308
665,Crossconnell,Dunaff,51.0,55.2746517,-7.443347734604659
666,Crossogs,Killymasny,19.0,54.929669,-7.8929590285856595
667,Crovehy,Cró Bheithe,57.0,54.963539000000004,-8.290805682452168
668,Crowanrudda,Cró Chaorach,8.0,54.67450229999999,-8.537117643020947
669,Croweighter,Cró Chaorach,19.0,54.70172715,-8.580176311617508
670,Crowkeeragh,Cró Chaorach,8.0,54.669722,-8.567778
671,Crowlar,Cró Chaorach,18.0,54.7033438,-8.54849037696145
672,Crownasillagh,An Leargaidh Mhór,8.0,54.65255360000001,-8.536307096622952
673,Cruickaghmore,Inis Mhic an Doirn,66.0,54.97844315,-8.396011432654989
674,Cruit Lower,Inis Mhic an Doirn,10.0,55.03915025,-8.421320534463524
675,Cruit Upper,Inis Mhic an Doirn,50.0,55.02224185,-8.414757791504865
676,Crumlin (ED Glengesh),Gleann Gheis,39.0,54.76055600000001,-8.455556
677,Cuilly,Tullynaught,21.0,54.640672200000004,-8.046979290195331
678,Culdaff,Culdaff,85.0,55.286966500000005,-7.166544
679,Culdaff Glebe,Culdaff,13.0,55.28699415,-7.134123527519598
680,Culineen,Redcastle,90.0,55.16514545,-7.14844945061644
681,Cullion (ED Corravaddy),Corravaddy,80.0,54.9354379,-7.712438907415928
682,Cullion (ED Lettermacaward),Leitir Mhic an Bhaird,19.0,54.844279,-8.334483743855785
683,Cullionboy,Clogher,53.0,54.68579345000001,-7.968318552308147
684,Culoort,Ardmalin,62.0,55.34944399999999,-7.345
685,Cunlin,Killybegs,21.0,54.6601281,-8.44508142896719
686,Curragh,Corravaddy,22.0,54.9235732,-7.7217698
687,Curraghafeaghan,Tieveskeelta,15.0,54.67214015,-8.397998579313423
688,Curraghalane,Clonleigh South,251.0,54.82397975,-7.499355372072802
689,Curraghlea,Gortnavern,66.0,54.979211600000006,-7.6899368
690,Curraghomongan,Stranorlar,198.0,54.817272100000004,-7.8421753
691,Currin,An Tearmann,84.0,55.05083925,-7.8277371968837866
692,Currynanerriagh,Gleann Léithín,30.0,54.8578775,-8.165201026369369
693,Cuskry Glebe,Cill Charthaigh,12.0,54.650918999999995,-8.619227
694,Cuttymanhill,St. Johnstown,13.0,54.9022191,-7.4613986684548035
695,Dargan,Grianfort,8.0,55.20820035,-7.6627925214833565
696,Darney,Dunkineely,77.0,54.6382265,-8.376258759958661
697,Deenystown,Castlewray,40.0,54.981233499999995,-7.668587575698815
698,Deer Park West,Castleforward,12.0,55.00378865,-7.481409421775508
699,Demesne,Cloghard,43.0,54.7956944,-7.599067988310231
700,Dernacally,Killea,11.0,54.94861160000001,-7.461522
701,Derries (ED Cavangarden),Cavangarden,58.0,54.5649288,-8.061057881477225
702,Derries (ED Glenties),Na Gleannta,76.0,54.77664059999999,-8.29114909643826
703,Derriscligh,An Tearmann,35.0,55.09002579999999,-7.84651474681461
704,Derrora,Templedouglas,74.0,54.96175,-7.904109159521407
705,Derryart,Ards,26.0,55.14783885,-7.93218925561464
706,Derrybeg (ED Magheraclogher),Machaire Chlochair,118.0,55.078211100000004,-8.289122099999998
707,Derrycassan,Ros Goill,45.0,55.20696875,-7.85359060997334
708,Derryconor,Gort an Choirce,161.0,55.11758029999999,-8.199844848324313
709,Derrydruel Lower,An Machaire,5.0,54.90905725,-8.366598700666977
710,Derrydruel Upper,An Machaire,33.0,54.91097020000001,-8.344310247380486
711,Derryfad,Caisleán na dTuath,6.0,55.0962955,-7.874264307085808
712,Derryharriff Glebe,An Craoslach,38.0,55.13472795,-7.932662651505554
713,Derryhirk,Bonnyglen,6.0,54.668181,-8.252741349668657
714,Derrykillew,Cliff,28.0,54.49721195,-8.056711554231052
715,Derrylahan (ED Kilcar),Cill Charthaigh,98.0,54.640278,-8.628889
716,Derryleconnell Far,Leitir Mhic an Bhaird,24.0,54.90889525,-8.245436567850508
717,Derryleconnell Near,Leitir Mhic an Bhaird,27.0,54.90226070000001,-8.263747674686112
718,Derrynacarrow,An Dúchoraidh,58.0,54.91349775000001,-8.226299205432191
719,Derrynagrial,An Dúchoraidh,6.0,54.923559700000006,-8.212040935064543
720,Derrynamansher,Anagaire,35.0,55.0365257,-8.281369687740575
721,Derrynanaspol,An Dúchoraidh,10.0,54.94207685,-8.198618811615415
722,Derryness,Dawros,23.0,54.786667,-8.443056
723,Derryreel,Na Croisbhealaí,137.0,55.13932955,-8.008939029918075
724,Derryvane,Kilderry,98.0,55.05526535,-7.31824404293563
725,Devlin or Barr of Ballyconnell,Na Croisbhealaí,10.0,55.07572,-8.001889
726,Devlinmore,Creamhghort,50.0,55.1610708,-7.7110966296290275
727,Devlinreagh,Creamhghort,81.0,55.16748705,-7.733532247651143
728,Doagh,Ros Goill,19.0,55.22205615,-7.850185575849407
729,Doagh Beg,Fánaid Thuaidh,55.0,55.25083299999999,-7.624444
730,Doagh More,Fánaid Thiar,31.0,55.22205945,-7.7658680900143695
731,Doaghcrabbin,Fánaid Thuaidh,12.0,55.23019205,-7.6104576208635475
732,Donaghmore Glebe,Castlefinn,16.0,54.80825725,-7.609204557906378
733,Donegal,Donegal,473.0,54.92075415,-7.95238521465131
734,Dooballagh,Magheraboy,84.0,54.907622200000006,-7.7047117
735,Doobally,Ballyshannon Rural,11.0,54.50501415,-8.120950950250313
736,Doocashel Glebe,Ards,44.0,55.14811075,-7.907709341992495
737,Doochill North,Ard an Rátha,51.0,54.7686411,-8.387470705721658
738,Dooey (ED Kilgoly),Cill Ghabhlaigh,14.0,54.70491985,-8.741109840113154
739,Dooey (ED Lettermacaward),Leitir Mhic an Bhaird,68.0,54.869095900000005,-8.3702097
740,Dooghan,Castlefinn,14.0,54.825453,-7.604161
741,Dooish (ED Dooish),Dooish,234.0,54.7969547,-7.849494864461567
742,Dooish (ED Treantamucklagh),Treantaghmucklagh,51.0,54.93055699999999,-7.526733
743,Doon,An Tearmann,39.0,55.0293568,-7.82301753338265
744,Doon Glebe,Ballymacool,186.0,54.941692700000004,-7.8293296
745,Doonalt,Cill Ghabhlaigh,27.0,54.706389,-8.7525
746,Doonan,Donegal,123.0,54.65819535,-8.12700977710993
747,Doorabble,Kincraigy,19.0,54.9246328,-7.578375598188263
748,Dooros,Clonleigh South,12.0,54.823296,-7.546129300314035
749,Dore,Machaire Chlochair,272.0,55.043056,-8.268333
750,Downies,Ros Goill,87.0,55.19564125,-7.856235720927288
751,Drean,Manorcunningham,11.0,54.96883675,-7.606489321321992
752,Dreenan,Knock,143.0,55.168093999999996,-7.450311900000001
753,Dresnagh,Urney West,11.0,54.7835637,-7.584374299695781
754,Dristernan,Gleneely,255.0,55.2405929,-7.142761479838704
755,Dromore (ED Ballintra),Ballintra,18.0,54.571389,-8.155
756,Dromore (ED Clonleigh North),Clonleigh North,13.0,54.8632271,-7.501448
757,Dromore (ED Donegal),Donegal,114.0,54.8632271,-7.501448
758,Dromore (ED Gleneely),Gleneely,241.0,54.7878159,-7.689093695482672
759,Dromore (ED Magheraboy),Magheraboy,195.0,54.9438581,-7.672264599999999
760,Dromore (ED Tantallon),Tantallon,50.0,54.63758965,-8.224020339400504
761,Dromore (ED Templedouglas),Templedouglas,38.0,55.01370475,-7.816158434161703
762,Dromore Big,Feddyglass,15.0,54.88954595,-7.562536362606937
763,Dromore Little,Feddyglass,37.0,54.8836139,-7.5596618
764,Drum (ED Greenfort),Grianfort,24.0,55.20521030000001,-7.632251909259257
765,Drum (ED Kilgoly),Cill Ghabhlaigh,13.0,54.71876685,-8.705651482988543
766,Drumabodan,Kilmacrenan,37.0,55.042778000000006,-7.738333
767,Drumacloghan,Glenalla,60.0,55.076111,-7.638889
768,Drumacrin,Bundoran Rural/Bundoran Urban,497.0,54.479390050000006,-8.27267691074939
769,Drumadart,Inver,12.0,54.65295125,-8.313840686981798
770,Drumadoney,Tullynaught,10.0,54.65970505,-8.033961414190394
771,Drumadooey,Birdstown,104.0,55.0591555,-7.360953425536381
772,Drumaghy (ED Glengesh),Gleann Gheis,91.0,54.75999525,-8.425299228225523
773,Drumaghy (ED Tieveskeelta),Tieveskeelta,26.0,54.66438985,-8.399143548076317
774,Drumagraa,An Bhinn Bhán,11.0,54.69795065,-8.217859595091202
775,Drumalough or Lough Hill,Gleann Gheis,10.0,54.73340699999999,-8.464445
776,Drumanaught,Killymasny,96.0,54.9197286,-7.8273177
777,Drumaneany,Gleann Léithín,16.0,54.889743599999996,-8.178169948747113
778,Drumaneary,Tantallon,13.0,54.62463415,-8.233433168019081
779,Drumaneel,Ballintra,33.0,54.59317185,-8.112489641793697
780,Drumanoo,Killybegs,40.0,54.611389,-8.4675
781,Drumany (ED Magheraboy),Magheraboy,181.0,54.93598025,-7.6873673802358535
782,Drumard,Eanymore,66.0,55.0830029,-7.752813199999999
783,Drumardagh,Magheraboy,161.0,54.955276,-7.651538536549862
784,Drumark,Donegal,115.0,54.65565940000001,-8.142118468980502
785,Drumatoland,Treantaghmucklagh,66.0,54.91727125,-7.552733699562634
786,Drumatrumman,An Cheathrú Chaol,17.0,55.12733535,-7.634926033361649
787,Drumatumpher,Bonnyglen,68.0,54.66373910000001,-8.24890558143483
788,Drumaville (ED Culdaff),Culdaff,175.0,55.278332999999996,-7.236944
789,Drumaville (ED Turmone),Turmone,10.0,55.2675,-7.0816669999999995
790,Drumavish,Gleneely,21.0,54.7834598,-7.735005264512244
791,Drumavohy (ED Malin),Malin,18.0,55.329668000000005,-7.254061
792,Drumawark,Pettigoe,18.0,54.57991455,-7.813425860084561
793,Drumaweer,Moville,430.0,55.21396470000001,-7.010556005202005
794,Drumbane,Urney West,39.0,55.0938823,-7.2505955
795,Drumbar,Donegal,36.0,54.643889,-8.063611
796,Drumbaran (ED Ardara),Ard an Rátha,123.0,54.7604631,-8.414202049929477
797,Drumbaran (ED Eanymore),Eanymore,68.0,54.6753306,-8.221841625581693
798,Drumbarity,Killybegs,11.0,54.6464373,-8.445559180772314
799,Drumbarnet,Killea,21.0,54.98012979999999,-7.561617
800,Drumbarnet Lower,Newtown Cunningham,7.0,54.980419700000006,-7.561356860336617
801,Drumbarnet Middle,Newtown Cunningham,20.0,54.97186605,-7.57187882712912
802,Drumbarnet Upper,Newtown Cunningham,48.0,54.963611,-7.576111
803,Drumbeagh (ED Killybegs),Killybegs,82.0,54.64234165000001,-8.444212903530254
804,Drumbeagh (ED Tantallon),Tantallon,60.0,54.6558036,-8.234705041368873
805,Drumbeg (ED Feddyglass),Feddyglass,13.0,54.88225920000001,-7.545843400000001
806,Drumbern,Millford,225.0,55.09666285,-7.691346374314781
807,Drumboarty,Eanymore,20.0,54.70415925,-8.160495325574376
808,Drumboe Lower,Stranorlar,437.0,54.80621945,-7.787162553038545
809,Drumboe Upper,Stranorlar,22.0,54.81535005,-7.783329546732625
810,Drumboghill,Dawros,12.0,54.8250257,-8.483209021135405
811,Drumbologe,Templedouglas,12.0,54.965832999999996,-7.871111
812,Drumboy (ED Clonleigh South),Clonleigh South,426.0,54.84125409999999,-7.491827827806925
813,Drumboy (ED Newtown Cunningham),Newtown Cunningham,7.0,55.015556000000004,-7.5375
814,Drumbrick,Kilmacrenan,38.0,55.04026615,-7.8102539917534735
815,Drumbristan Glebe,Ballintra,14.0,54.60109505,-8.140723720578269
816,Drumcannon,Gleneely,33.0,54.775839399999995,-7.670937278090467
817,Drumcarbit,Malin,248.0,55.303988000000004,-7.2491962353671076
818,Drumcarn,Kincraigy,47.0,54.92954855,-7.606924637814252
819,Drumcavany,Templedouglas,75.0,54.98634595,-7.8535613664735315
820,Drumchory Glebe,Ballintra,7.0,54.5964071,-8.139989550185183
821,Drumcliff,Donegal,74.0,54.65438815,-8.118863148006277
822,Drumcoe,Tantallon,64.0,54.627777,-8.262344
823,Drumconor,Tantallon,74.0,54.64444399999999,-8.255556
824,Drumcroagh,Tullynaught,11.0,54.64883965,-8.059229065467969
825,Drumcrow,Feddyglass,17.0,54.88157800000001,-7.520287542490357
826,Drumderrydonan,Allt na Péiste,29.0,54.81014685,-8.008456305044838
827,Drumdeevin,An Tearmann,31.0,55.0518143,-7.843223858240829
828,Drumdoit,Urney West,87.0,54.7731159,-7.572834599999999
829,Drumduff,Bonnyglen,36.0,54.65531205,-8.257695657691482
830,Drumdutton,Glen,6.0,55.13423365,-7.832072083301758
831,Drumearn,St. Johnstown,23.0,54.89467005,-7.47285497331589
832,Drumenan (ED Killymasny),Killymasny,84.0,54.92005500000001,-7.878885702860693
833,Drumenan (ED St. Johnstown),St. Johnstown,60.0,54.9159711,-7.473865983282473
834,Drumfad (ED Feddyglass),Feddyglass,16.0,54.87677015,-7.553866769779104
835,Drumfergus,Gleneely,68.0,54.779722,-7.6725
836,Drumfin (ED Inver),Inver,17.0,54.66016145,-8.305019781146733
837,Drumgorman (ED Tantallon),Tantallon,42.0,54.6332664,-8.2609569
838,Drumgorman Barr,Tantallon,19.0,54.642782,-8.234837162021952
839,Drumgornan,Donegal,32.0,54.6733755,-8.119245730305567
840,Drumgowan,Donegal,53.0,55.039722,-7.485833
841,Drumgreggan,Magheraboy,38.0,54.94851070000001,-7.674245114869023
842,Drumgumberland,Convoy,47.0,54.854443999999994,-7.685833000000001
843,Drumhaggart,Birdstown,134.0,55.06542835,-7.338692915008652
844,Drumhallagh Lower,Killygarvan,20.0,55.1374752,-7.5614077
845,Drumhallagh Upper,Killygarvan,31.0,55.13474905,-7.568432863890713
846,Drumharriff,Pettigoe,45.0,54.54283025,-7.838283592814061
847,Drumherrive,Glenalla,60.0,55.06908595,-7.609432775079679
848,Drumhome,Ballintra,15.0,54.5788297,-8.174908023742997
849,Druminardagh,Tullynaught,24.0,54.64407935,-8.027469985453074
850,Druminderry Upper and Lower,Illies,19.0,55.14453100000001,-7.396196891824244
851,Drumineney,Raphoe,10.0,54.854401300000006,-7.617905561084275
852,Druminnin,Clogher,136.0,54.6829973,-8.018731629700422
853,Drumirrin,Gleann Gheis,13.0,54.7851034,-8.529142527954164
854,Drumkeeghan,Donegal,12.0,54.66176779999999,-8.156921322708895
855,Drumkeelan,Tantallon,35.0,54.66551585000001,-8.207023887026093
856,Drumkeen,Convoy,282.0,54.8669884,-7.752592699999999
857,Drumlackagh,Glen,19.0,55.1347576,-7.8454578999999995
858,Drumlaghdrid,An Machaire,74.0,54.897537199999995,-8.3279865
859,Drumlaght,Donegal,24.0,54.66394560000001,-8.089085094634813
860,Drumlaghtafin,Inver,24.0,54.67755379999999,-8.2806648
861,Drumlask,Tullynaught,33.0,54.63884955,-8.066565499180314
862,Drumleavalliagh,An Craoslach,7.0,55.08196575,-7.907893742036857
863,Drumlee,Gleneely,27.0,55.23871775,-7.122612127696499
864,Drumleene,Clonleigh North,91.0,54.87564075,-7.4980246051299675
865,Drumlonagher,Donegal,121.0,54.661035899999995,-8.086803699999999
866,Drumlougher,Castleforward,25.0,54.973387,-7.491290099980754
867,Drumlurgagh,An Tearmann,25.0,55.0402947,-7.8223474806437245
868,Drummacacullen,Bonnyglen,18.0,54.67060305,-8.270746892280354
869,Drummacaladdery,Creamhghort,11.0,55.127322,-7.746949000000001
870,Drummacanoo,Templedouglas,108.0,54.960351,-7.860699
871,Drumman,Ballyarr,6.0,55.0404757,-7.706523525429133
872,Drummanus Glebe,Ballintra,11.0,54.60468535,-8.11974963246628
873,Drummay,Castleforward,20.0,54.98450250000001,-7.494986566145711
874,Drummeenanagh (ED Lough Eask),Loch Iascaigh,24.0,54.677864,-8.084166
875,Drummenny Lower,Tullynaught,46.0,54.650754299999996,-8.082007896960787
876,Drummenny Middle,Tullynaught,9.0,54.6525091,-8.064544915839349
877,Drummenny Upper,Tullynaught,10.0,54.65594399999999,-8.063328
878,Drummucklagh,Feddyglass,40.0,54.88649,-7.5381339999999994
879,Drummurphy,Cloghard,9.0,54.78555600000001,-7.630833
880,Drumnacarry (ED Bonnyglen),Bonnyglen,12.0,54.678029599999995,-8.258915034706941
881,Drumnacarry (ED Creeslough),An Craoslach,18.0,55.08689115,-7.898762310620719
882,Drumnacarry (ED Lough Eask),Loch Iascaigh,10.0,54.682366,-8.056872146591182
883,Drumnacart Mountain Pasture,Anagaire,40.0,55.00825675,-8.348376612935539
884,Drumnacraig,Fánaid Thuaidh,11.0,55.23633075,-7.620495931039822
885,Drumnacroil,Ballintra,23.0,54.58933705,-8.13309014724372
886,Drumnacross (ED Lettermore),Lettermore,12.0,54.8599659,-7.760934700000001
887,Drumnacross (ED Ardara),Ard an Rátha,35.0,54.76857385,-8.324651602808032
888,Drumnafinnagle,An Leargaidh Mhór,46.0,54.63482605,-8.573347980223787
889,Drumnagahan,Clogher,12.0,54.67382579999999,-8.053942894606566
890,Drumnagroagh,Carrickboy,18.0,54.48631375,-8.17014968617681
891,Drumnaha (ED Clonleigh South),Clonleigh South,20.0,54.84143605,-7.535820824730559
892,Drumnaha (ED Glenleheen),Gleann Léithín,7.0,54.890556000000004,-8.146666999999999
893,Drumnaha (ED Urney West),Urney West,13.0,54.7793282,-7.555036574046383
894,Drumnaheark East,Eanymore,17.0,54.6840541,-8.186069727866823
895,Drumnaheark West,Eanymore,7.0,54.68482625,-8.200631799232125
896,Drumnahoagh,Letterkenny Rural,167.0,54.94506915,-7.707699147800771
897,Drumnahough,Mín Charraigeach,12.0,54.931567,-7.900579288813812
898,Drumnahoul,Tullynaught,9.0,54.6544679,-8.047569453210865
899,Drumnakilly,Inver,46.0,54.647778,-8.304167
900,Drumnalost,Eanymore,16.0,54.67501565,-8.192837938085647
901,Drumnaraw,An Craoslach,46.0,55.09475655,-7.897884003037382
902,Drumnasillagh,Na Gleannta,336.0,54.7942856,-8.268421855298508
903,Drumnaskea (ED Castlewray),Castlewray,62.0,54.9933566,-7.670681299999999
904,Drumnatinny,Na Croisbhealaí,52.0,55.15339485,-8.102402898810446
905,Drumoghill (ED Kincraigy),Kincraigy,89.0,54.936944,-7.593611
906,Drumoghill (ED Termon),An Tearmann,23.0,55.04676895,-7.852881840107526
907,Drumrat,Donegal,41.0,54.65362629999999,-8.089695007092903
908,Drumreagh,Cill Charthaigh,20.0,54.64037325,-8.60147016802891
909,Drumroe,Cill Ghabhlaigh,44.0,54.71043570000001,-8.707690748736367
910,Drumrone,Eanymore,46.0,54.6908564,-8.197290730093169
911,Drumroosk,Donegal,10.0,54.6669587,-8.114261755479252
912,Drumroosk Middle,Donegal,324.0,54.6631181,-8.103990729261364
913,Drumroosk West,Donegal,497.0,54.66084955,-8.110294581979455
914,Drumsallagh,Mín an Lábáin,11.0,54.966899,-7.958775495125978
915,Drumskellan,Three Trees,134.0,55.0941438,-7.237727900000001
916,Drumstevlin,Donegal,39.0,54.66274035,-8.145635422795824
917,Drung (ED Redcastle),Redcastle,264.0,55.16811975,-7.188536738687757
918,Dunaff,Dunaff,139.0,55.27389,-7.503062811893605
919,Dunagard,Ardmalin,29.0,55.34964685,-7.275039639455745
920,Dundee,St. Johnstown,250.0,54.938459699999996,-7.458540662551123
921,Dundooan Lower,Ros Goill,51.0,55.22862465,-7.8036699399584295
922,Dundooan Upper,Ros Goill,22.0,55.21691915,-7.814760505163178
923,Dundrean,Birdstown,133.0,55.048502799999994,-7.354858183145182
924,Dunduffsfort,Newtown Cunningham,31.0,54.9598868,-7.566909070038255
925,Dunfanaghy,Dún Fionnachaidh,168.0,55.18338789999999,-7.9717773
926,Dunglow,An Clochán Liath,692.0,54.947435,-8.35538971357801
927,Dungorman,Cloghard,46.0,54.78565860000001,-7.627029767743268
928,Dunkineely,Dunkineely,156.0,54.6313,-8.3606983
929,Dunlewy Near,Dún Lúiche,17.0,55.0183741,-8.09429188171941
930,Dunmore (ED Annagary),Anagaire,32.0,55.0629673,-8.32968332793918
931,Dunmore (ED Carrickart),Carraig Airt,76.0,55.151819700000004,-7.8034834
932,Dunmore (ED Carrowkeel),An Cheathrú Chaol,13.0,55.123236600000006,-7.647521968966153
933,Dunmore (ED Cross Roads),Na Croisbhealaí,127.0,54.951586,-7.418467999999999
934,Dunmore (ED Killea),Killea,243.0,54.9566128,-7.4160812298349565
935,Dunmuckrum,Bundoran Rural/Ballyshannon Urban,116.0,54.486111,-8.214722
936,Dunnaloob,Urney West,36.0,54.787214899999995,-7.555241170921192
937,Dunree,Desertegny,38.0,55.197769,-7.543837137608294
938,Dunross,Culdaff,146.0,55.28020815,-7.161666466749852
939,Duntinny,Grianfort,10.0,55.19828135,-7.640778976394147
940,Dunwiley,Stranorlar,101.0,54.8192466,-7.763886437638696
941,Durnesh,Ballintra,13.0,54.569033450000006,-8.194811698040432
942,Eddrim Glebe,Donegal,52.0,54.66235385,-8.168146091667793
943,Eden,Dawros,18.0,54.82578795,-8.513756678487308
944,Edenacarnan South,Edenacarnan,14.0,54.98576335,-7.768353449165247
945,Edenagor,Carrickboy,21.0,54.4879931,-8.125333471271832
946,Edenamoghil,Gleneely,50.0,54.76201455,-7.709062256164946
947,Edenamuck,Eanymore,12.0,54.67690435,-8.20901904840321
948,Edenfinfreagh,An Ghrafaidh,8.0,54.79841345,-8.158500586097112
949,Edenmore (ED Clonleigh North),Clonleigh North,38.0,54.85137905,-7.491318419850694
950,Edenmore (ED Gleneely),Gleneely,68.0,54.79483305,-7.74765264091052
951,Edergole (ED Glengesh),Gleann Gheis,71.0,54.75235335,-8.418639989005474
952,Edergole (ED Lough Eask),Loch Iascaigh,5.0,54.73088520000001,-8.0452826
953,Eighterross,Castlewray,20.0,54.9889618,-7.645645699999999
954,Elaghbeg,Birdstown,178.0,55.04806800000001,-7.385967
955,Eleven Ballyboes,Greencastle,331.0,55.2091164,-6.9733356122982455
956,Ellistrin Big,Gortnavern,25.0,55.00081555,-7.720900542121428
957,Ellistrin Little,Gortnavern,27.0,54.99798145,-7.728656491677136
958,Elly,Killygarvan,12.0,55.13012455,-7.589455182428021
959,Errarooey Beg,Dún Fionnachaidh,23.0,55.1557169,-8.062690461291622
960,Errarooey More,Dún Fionnachaidh,40.0,55.1650306,-8.055792709979677
961,Errity,Manorcunningham,18.0,54.95083225,-7.610573921388028
962,Errity Churchland,Manorcunningham,65.0,54.9536603,-7.615471182512564
963,Eskaheen,Kilderry,202.0,55.09867730000001,-7.2861498027867775
964,Evishbreedy,Illies,11.0,55.179288899999996,-7.315968186273223
965,Faiafannan,Killybegs,26.0,54.66182025,-8.432632768377287
966,Falbane,Mín an Lábáin,29.0,54.97739985,-7.908641888127911
967,Falcarragh,Na Croisbhealaí,118.0,55.136161,-8.103109700000001
968,Falchorrib,An Machaire,45.0,54.89757575,-8.39333844897388
969,Fallagowan (Aran Island),Árainn Mhór,38.0,54.9815404,-8.494344357430101
970,Fallard or Calhame,Gortnavern,115.0,54.988910100000005,-7.720291800000001
971,Fallask,Illies,44.0,55.179722,-7.406944
972,Fanaghans,Inver,92.0,54.644645,-8.299368630501245
973,Fanavolty,Fánaid Thuaidh,11.0,55.2339468,-7.687365048676562
974,Farnagh,Rathmelton,28.0,55.0366939,-7.59235915722189
975,Farragans (ED Lettermacaward),Leitir Mhic an Bhaird,32.0,54.85558215,-8.341140556160784
976,Farranmacbride,Cill Ghabhlaigh,5.0,54.714093999999996,-8.721227988856995
977,Faugher,Cill Ghabhlaigh,14.0,55.172778,-7.9166669999999995
978,Fawans,An Tearmann,24.0,55.06490185,-7.817410399749465
979,Fawnaboy,Gort an Choirce,129.0,55.0871613,-8.132972800000001
980,Fawninoughan,Glenalla,41.0,55.06638805,-7.666481210723393
981,Fawnmore,Dún Fionnachaidh,34.0,55.1568611,-8.039075605717407
982,Faymore,An Craoslach,45.0,55.12432285,-7.947084141200019
983,Feddyglass,Feddyglass,22.0,54.87633235,-7.531886451853295
984,Fegart,Ballyliffin,61.0,55.2983544,-7.323030276923079
985,Figart (ED Dunfanaghy),Dún Fionnachaidh,50.0,55.17991530000001,-7.987538077987944
986,Figart (ED Figart),Figart,42.0,54.85918905,-7.630678486759929
987,Figary,Fahan,190.0,55.08966345,-7.472680311379659
988,Fincashel,Pettigoe,10.0,54.55373865,-7.8791781727248065
989,Findrum,Convoy,33.0,54.8467718,-7.674292799023683
990,Finnabanes,Clogher,95.0,54.671110999999996,-8.035833
991,Finnadoos,Tullynaught,51.0,54.66626095,-8.02565642773221
992,Finnadork Glebe,Convoy,16.0,54.8765817,-7.69749176501129
993,Finner,Bundoran Rural/Bundoran Urban,528.0,54.5290697,-8.2268451
994,Fintown,Baile na Finne,88.0,54.87055600000001,-8.113333
995,Fintragh,Crownarad,275.0,54.66064735000001,-8.50338613881549
996,Flemingstown,Figart,7.0,54.8792654,-7.668951491176479
997,Foffanagh,Illies,69.0,55.1566804,-7.399012
998,Forquar,Millford,343.0,55.08122335,-7.6951152206990185
999,Fortstewart,Rathmelton,12.0,55.03063235,-7.572240301773927
1000,Foxhall,Templedouglas,24.0,54.9413277,-7.8411366
1001,Foyagh,Ballintra,16.0,54.5676698,-8.1723145
1002,Foyfin,Urney West,25.0,54.7884093,-7.572953712748151
1003,Fraugher,Ards,65.0,55.17077,-7.922206
1004,Freehold,Gleneely,16.0,55.2542774,-7.176763092133349
1005,Friary,Loch Iascaigh,88.0,54.70141945,-8.062228429617539
1006,Fycorranagh,Corravaddy,40.0,54.92788705,-7.7147425343020055
1007,Gaddyduff,Straid,222.0,55.2650512,-7.412239303850102
1008,Galdonagh,Treantaghmucklagh,146.0,54.9470377,-7.565369739467897
1009,Galdonagh Glebe,Treantaghmucklagh,63.0,54.93331365,-7.56934633565237
1010,Galwolie (ED Cloghan),An Clochán,26.0,54.858408999999995,-7.944602000000001
1011,Galwolie (ED Lettermacaward),Leitir Mhic an Bhaird,47.0,54.87840545,-8.274376461583005
1012,Gannew and Curreen,Málainn Bhig,50.0,54.70179355000001,-8.711803607536513
1013,Gargrim,Eanymore,38.0,54.67817940000001,-8.245473525578472
1014,Garrisonhill,Gleneely,24.0,54.7908844,-7.6990929315428795
1015,Garrowcarry,Edenacarnan,95.0,54.98028705,-7.7966645425919054
1016,Garrygort,Millford,18.0,55.101389000000005,-7.672778
1017,Garrymore,Millford,10.0,55.10908875,-7.6493816789028655
1018,Garshooey,Killea,59.0,54.9820003,-7.432811181419088
1019,Garvagh,Tawnawully,29.0,54.7075,-8.026667
1020,Garvan,An Clochán,35.0,54.82965825,-7.973495387010415
1021,Garvanagh,Cavangarden,50.0,54.5492907,-8.113198750347067
1022,Garvary (ED Birdstown),Birdstown,165.0,55.07333875000001,-7.385298392983367
1023,Garvegort Glebe,Ard an Rátha,30.0,54.770736899999996,-8.365775882745861
1024,Garveross,Cill Ghabhlaigh,11.0,54.715710400000006,-8.743297902781539
1025,Gilbertstown,Dunkineely,24.0,54.66436105,-8.384815289237377
1026,Gillystown,St. Johnstown,22.0,54.9053696,-7.483335367529071
1027,Glack,Críoch na Sméar,23.0,55.19519079999999,-7.5160565
1028,Glack or Bohullion,Inch Island,28.0,55.07306195,-7.500300690953244
1029,Glackadrumman,Culdaff,30.0,55.276568000000005,-7.152753
1030,Glasalt or Treanfasy,Carndonagh,83.0,55.245277,-7.319215
1031,Glasbolie,Ballintra,78.0,54.55348895,-8.15006893185337
1032,Glashagh,Mín an Chladaigh,202.0,54.9795313,-7.7843186
1033,Glashagh Beg,An Clochán,15.0,54.854964,-8.02396
1034,Glashagh More,An Clochán,19.0,54.851932999999995,-8.043708
1035,Glashbeggan,Inis Mhic an Doirn,47.0,54.9644866,-8.414383995492074
1036,Glaskeeragh,Templecarn,7.0,54.56507785,-7.99738611390682
1037,Glasly,Convoy,68.0,54.8567014,-7.683435180389428
1038,Glasmullan (ED Killea),Killea,13.0,54.94784035,-7.411167272464503
1039,Glasmullan (ED Mintiaghs),Mintiaghs,57.0,55.2144269,-7.4101550000000005
1040,Glassan,Críoch na Sméar,11.0,55.0898718,-7.9461283839799695
1041,Glasserchoo,Gort an Choirce,154.0,55.1403712,-8.206375860993802
1042,Glebe (ED Carndonagh),Carndonagh,54.0,55.27027235,-7.287847213236207
1043,Glebe (ED Castlewray),Castlewray,604.0,54.95793145,-7.688594779704405
1044,Glebe (ED Clonleigh North),Clonleigh North,18.0,54.85361999999999,-7.4966800000000005
1045,Glebe (ED Cross Roads),Na Croisbhealaí,12.0,55.137845,-8.127592103645114
1046,Glebe (ED Desertegny),Desertegny,36.0,55.18291415,-7.510471352778696
1047,Glebe (ED Donegal),Donegal,245.0,54.955670700000006,-7.454220288700348
1048,Glebe (ED Fahan),Fahan,9.0,55.0821794,-7.459139537842446
1049,Glebe (ED Killybegs),Killybegs,70.0,54.6277693,-8.44571118569857
1050,Glebe (ED Rosguill),Ros Goill,24.0,55.2182478,-7.824448895927968
1051,Glebe (ED Stranorlar),Stranorlar,205.0,54.80603025,-7.760496302744657
1052,Glebe Large,Fahan,18.0,55.07832835,-7.4527858230256605
1053,Glen,Tantallon,20.0,54.6480513,-8.177429263740803
1054,Glen Lower,Rathmelton,39.0,55.04524250000001,-7.674854724853146
1055,Glenalla,Glenalla,79.0,55.09958385,-7.623929540731144
1056,Glencar Irish,Letterkenny Rural,1008.0,54.9644086,-7.750223299999999
1057,Glencar Scotch,Letterkenny Rural,1921.0,54.9631905,-7.7655659
1058,Glencash,Clonleigh North,59.0,54.8655978,-7.492445560879425
1059,Glencaw,Whitecastle,14.0,55.1520654,-7.1916289
1060,Glencoagh,Tantallon,136.0,54.6557514,-8.201496476595743
1061,Glencovet,Knock,90.0,54.78582735,-7.7587522735550705
1062,Glencross,Rathmullan,24.0,55.11486729999999,-7.560696341608965
1063,Glencrow,Castlecary,150.0,55.1951777,-7.0607576086105075
1064,Gleneely,Gleneely,32.0,54.766667000000005,-7.683333
1065,Glenfad,Clonleigh North,49.0,54.86718835,-7.4678713186432555
1066,Glengad,Carthage,543.0,55.32094300000001,-7.180585000000001
1067,Glengesh,Gleann Gheis,62.0,54.740832999999995,-8.446944
1068,Glengillagrana High,Glen,55.0,55.1313084,-7.7967019808890745
1069,Glenieraragh,Glen,54.0,55.1,-7.816667
1070,Glenkeen,Millford,24.0,55.08233945,-7.679410077309351
1071,Glenkeeragh,Templedouglas,72.0,54.95359605,-7.833142416477065
1072,Glenkeeran,Magheraboy,13.0,54.9032113,-7.684014331164852
1073,Glenkeo (ED Carrickart),Carraig Airt,30.0,55.15526070000001,-7.789600900000001
1074,Glenkeo (ED Edenacarnan),Edenacarnan,27.0,54.96897525,-7.795772681721685
1075,Glenleary,Rathmelton,99.0,55.164194499999994,-7.673532799999999
1076,Glenlee,Killybegs,11.0,54.629129000000006,-8.466631816976964
1077,Glenmacannive,Na Gleannta,17.0,54.8054004,-8.262244828875108
1078,Glenmakee,Carndonagh,152.0,55.25816460000001,-7.305145817256228
1079,Glenmaquin Upper,Kincraigy,30.0,54.891733900000006,-7.653322266474738
1080,Glenmaquin Lower,Kincraigy,146.0,54.90515920000001,-7.660683822293304
1081,Glenmenagh,Glen,29.0,55.12383345,-7.803614433165566
1082,Glennagiveny,Greencastle,24.0,55.24187439999999,-6.996695195437948
1083,Glennahilt,Inis Mhic an Doirn,14.0,54.99369835,-8.42812209378576
1084,Glenree,Carraig Airt,30.0,55.152778000000005,-7.826389
1085,Glentidaly,Glenalla,11.0,55.08288055,-7.631168141273386
1086,Glentidaly Glebe,Glenalla,25.0,55.08738145,-7.643251786755352
1087,Glentown,Treantaghmucklagh,18.0,54.888296999999994,-7.5854466
1088,Glinsk,Fánaid Thiar,48.0,55.208611,-7.781944
1089,Gobnascale,Convoy,8.0,54.853456900000005,-7.718876914316239
1090,Gola,Machaire Chlochair,5.0,55.08843375,-8.365272936516316
1091,Goladoo,Tawnawully,18.0,54.71777005,-8.034667978735502
1092,Golan,Millford,41.0,55.09093539999999,-7.751145364903582
1093,Goland,Goland,121.0,54.77963810000001,-7.832557063972682
1094,Golard,Laghy,23.0,54.62602585000001,-8.047636857912593
1095,Goldrum,Loch Caol,39.0,55.06490185,-7.809002956365774
1096,Goorey,Malin,7.0,55.3079746,-7.302062264172005
1097,Gort (ED Straid),Straid,4.0,55.242431999999994,-7.446341
1098,Gort Glebe,Raphoe,22.0,54.8683186,-7.612988006007121
1099,Gortahork (ED Gleneely),Gleneely,48.0,54.75761585,-7.747941216933035
1100,Gortahork (ED Gortahork),Gort an Choirce,109.0,55.119517,-8.1344091
1101,Gortalaban,Edenacarnan,22.0,54.9900627,-7.78207605650033
1102,Gortalia,An Leargaidh Mhór,8.0,54.6212436,-8.563413397419389
1103,Gortanny,Whitecastle,77.0,55.13308539999999,-7.217821569205454
1104,Gortaquigley,Raphoe,17.0,54.870693,-7.582658687184871
1105,Gortaward,Tantallon,18.0,54.64273000000001,-8.262355078541946
1106,Gortaway,Rathmelton,26.0,55.034167000000004,-7.588333
1107,Gortcally,An Cheathrú Chaol,53.0,55.13405435,-7.631021476161248
1108,Gortcormacan,Birdstown,29.0,55.0705301,-7.339612400000001
1109,Gortgarra (Aran Island),Árainn Mhór,44.0,54.98250935,-8.503537580399673
1110,Gortin,Ballyarr,35.0,54.818008,-7.575814200000001
1111,Gortin North,Clonleigh North,81.0,54.85673075,-7.528344628308189
1112,Gortin South,Clonleigh South,6.0,54.81557455,-7.57489240298913
1113,Gortiness,Allt na Péiste,32.0,54.82482445,-7.93164869643627
1114,Gortinlieve,Killea,16.0,55.0033679,-7.435760232392559
1115,Gortinreagh,Clonleigh North,37.0,54.85280255,-7.5546932775286555
1116,Gortleck,Desertegny,90.0,55.0971491,-7.7420739
1117,Gortlee,Letterkenny Rural,565.0,54.956825,-7.7243966
1118,Gortletteragh,Stranorlar,12.0,54.81568445,-7.73142658447617
1119,Gortlosky,Donegal,62.0,54.669930900000004,-8.105415366057175
1120,Gortlush,Castleforward,23.0,55.00128660000001,-7.467020699999999
1121,Gortmacall Beg,Millford,100.0,55.08568955,-7.712671487415798
1122,Gortmacall More,Millford,32.0,55.076735,-7.719015
1123,Gortnabrade,Carraig Airt,108.0,55.15928115,-7.7734564166522375
1124,Gortnacart Glebe,Ard an Rátha,18.0,54.759088600000005,-8.34519646714261
1125,Gortnacor,Grianfort,32.0,55.2008544,-7.646255888007087
1126,Gortnacorrib,Edenacarnan,72.0,54.97593955,-7.782234256374101
1127,Gortnagrace,Urney West,21.0,54.753715899999996,-7.59017721626368
1128,Gortnaleck,Críoch na Sméar,63.0,55.097626600000005,-7.980919782496914
1129,Gortnalughoge,Ros Goill,9.0,55.23416700000001,-7.795278
1130,Gortnamuck,Cloghard,36.0,54.639669700000006,-8.4883866
1131,Gortnamucklagh,Na Gleannta,440.0,54.79716625,-8.29591316565676
1132,Gortnasate,Anagaire,24.0,55.033333,-8.4
1133,Gortnasillagh,Na Gleannta,41.0,54.82745395,-8.337047316194258
1134,Gortnaskea,Birdstown,103.0,55.0778307,-7.3568024
1135,Gortnaskeagh,Kilmacrenan,53.0,55.0439427,-7.772088179765809
1136,Gortnatraw North,Fánaid Thiar,20.0,55.2307649,-7.749591453641321
1137,Gortnatraw South,An Cheathrú Chaol,184.0,55.1468521,-7.651753270260485
1138,Gortnavern (ED Gortnavern),Gortnavern,110.0,55.01722235,-7.732322646120237
1139,Gortnavern (ED Millford),Millford,11.0,55.11876655,-7.666508539134327
1140,Gortree,Castleforward,98.0,54.976667000000006,-7.526944
1141,Gortyarrigan,Desertegny,75.0,55.17642885,-7.4716527135054545
1142,Grahamsland,Castlefinn,326.0,54.80857035,-7.599556512084444
1143,Grahamstown,Ballintra,11.0,54.5845051,-8.136888660936528
1144,Grange (ED Burt),Burt,8.0,55.02366155,-7.507668280854631
1145,Grange (ED Inch Island),Inch Island,120.0,55.02235,-7.50471
1146,Gransha,Buncrana Rural,110.0,55.1177159,-7.436250003179638
1147,Grawky,Manorcunningham,10.0,54.95677545,-7.592150025682645
1148,Greaghs,Laghy,43.0,54.6211668,-7.9968632669354145
1149,Greenan,Loch Iascaigh,24.0,54.71769065,-8.06352666222968
1150,Greenans,An Ghrafaidh,6.0,54.79914960000001,-8.18283376371382
1151,Greenfield,Convoy,105.0,54.857020999999996,-7.675949
1152,Greenfort Demesne,Grianfort,10.0,55.19781145,-7.630021501140955
1153,Greenhill (ED Castlewray),Castlewray,64.0,54.97455550000001,-7.6611406
1154,Greenhill (ED Dunfanaghy),Dún Fionnachaidh,25.0,55.1575441,-7.991418227977165
1155,Greenhills,Stranorlar,27.0,54.8471768,-7.6411921
1156,Grogagh,An Craoslach,31.0,55.10470685,-7.917289494480928
1157,Grousehall,Grousehall,37.0,54.60836020000001,-7.769223201958864
1158,Grovehall or Newtowngrove,Ballyarr,33.0,55.037053,-7.720565
1159,Gulladoo,Moville,361.0,55.21079065,-7.0486213208631625
1160,Guystown,Clonleigh North,22.0,54.8479289,-7.534705418731109
1161,Halftown,Urney West,28.0,54.7814667,-7.5620536
1162,Hall Demesne,Tantallon,184.0,54.639650100000004,-8.196852327886859
1163,Haugh,Haugh,14.0,54.7003377,-8.107540963218597
1164,Haw (ED Clonleigh South),Clonleigh South,32.0,54.816298200000006,-7.510516028087522
1165,Haw (ED Killea),Killea,64.0,54.9595419,-7.468651299999999
1166,Heneys,Haugh,73.0,54.67896665,-8.088056485512194
1167,Hollands,Clonleigh North,11.0,54.86130229999999,-7.511824495710531
1168,Illies,Illies,100.0,55.148332999999994,-7.331944
1169,Illion (Aran Island),Árainn Mhór,33.0,54.98618065,-8.531350462743651
1170,Imlick,Killea,6.0,54.97138489999999,-7.4163818
1171,Inch Level (ED Burt),Burt,12.0,55.04625125,-7.446175437131464
1172,Inishfad,Ballintra,9.0,54.5825548,-8.185499911142532
1173,Inniskil (ED Church Hill),Mín an Lábáin,10.0,54.95559545,-7.958597291080217
1174,Inver Glebe,Inver,96.0,54.65207445,-8.283539383200925
1175,Ironworks,Stranorlar,9.0,54.80435155,-7.809569822155456
1176,Island Roy,Ros Goill,12.0,55.191122299999996,-7.79532035597863
1177,Keadew,Inis Mhic an Doirn,235.0,54.79093979999999,-8.446694800000001
1178,Keadew Upper,Clogher,17.0,54.70762545,-7.952539935419285
1179,Keadew Lower,Clogher,15.0,54.696391000000006,-7.997172
1180,Keeldrum,Clogher,19.0,54.66775870000001,-8.070800434973807
1181,Keeldrum Lower,Gort an Choirce,57.0,55.1128562,-8.149554137111153
1182,Keeldrum Upper,Gort an Choirce,87.0,55.06958445,-8.169786230631402
1183,Keeloges (ED Church Hill),Mín an Lábáin,77.0,54.9809238,-7.8841427006678115
1184,Keeloges (ED Inver),Inver,56.0,54.6650245,-8.284792462709671
1185,Keenagh,Ardmalin,25.0,55.345,-7.314444
1186,Keenaghan (ED Edenacarnan),Edenacarnan,127.0,55.014734600000004,-7.771440677421009
1187,Keenaghan (ED Kilcar),Cill Charthaigh,122.0,54.6368134,-8.577857801539473
1188,Keshends,Castleforward,35.0,54.99837105,-7.475293973969184
1189,Kilaned,Cill Ghabhlaigh,21.0,54.70415210000001,-8.736237343595427
1190,Kilbarron,Ballyshannon Rural,116.0,54.537758200000006,-8.228385282315518
1191,Kilbeg,Cill Charthaigh,77.0,54.627276050000006,-8.614082416819137
1192,Kilcaddan,Gleneely,18.0,54.79305600000001,-7.714167
1193,Kilcar,Cill Charthaigh,57.0,54.63260699999999,-8.592366499999999
1194,Kilcasey,Cill Charthaigh,63.0,54.652778000000005,-8.594722
1195,Kilclooney Beg,Dawros,60.0,54.82263070000001,-8.443606277830664
1196,Kilclooney More,Dawros,37.0,54.81421195,-8.436755502760736
1197,Kilconnell or Glebe,Kilmacrenan,88.0,55.03903100000001,-7.786839
1198,Kilcreen,Rathmelton,44.0,55.0284324,-7.614994046972084
1199,Kildarragh,Críoch na Sméar,54.0,55.13179125,-8.000483061618121
1200,Kildoney Glebe,Ballyshannon Rural,86.0,54.52333735,-8.253489109541537
1201,Kildrum Lower,Killea,49.0,54.9743127,-7.4092579
1202,Kildrum Upper,Killea,163.0,54.97962679999999,-7.418887314014799
1203,Kilgole,Ballintra,9.0,54.7665226,-8.4183664
1204,Kilkenny,Maas,14.0,54.7806501,-7.726250200000001
1205,Kill (ED Carrickart),Carraig Airt,49.0,55.14709920000001,-7.8158837
1206,Kill (ED Dunfanaghy),Dún Fionnachaidh,162.0,55.17549680000001,-7.957513986556678
1207,Kill (ED Largymore),An Leargaidh Mhór,35.0,54.632445499999996,-8.523411429
1208,Killaghtee,Dunkineely,16.0,54.62670065,-8.374062963557883
1209,Killindarragh,Anagaire,30.0,55.023552,-8.268303999999999
1210,Killavee,Grianfort,11.0,55.193436,-7.626742999999999
1211,Killeen,Carrickboy,31.0,54.494466,-8.193771
1212,Killin (ED Bonnyglen),Bonnyglen,30.0,54.69498345,-8.264832742676234
1213,Killin (ED Malin),Malin,12.0,55.32003785,-7.300619419288258
1214,Killinangel Beg,Ballintra,22.0,54.553032900000005,-8.17840657495852
1215,Killinangel More,Ballintra,22.0,54.56158720000001,-8.178498172265902
1216,Killoughcarran,Caisleán na dTuath,36.0,55.109437,-7.894713412950597
1217,Killult,Na Croisbhealaí,186.0,55.132335499999996,-8.1297894
1218,Killultan,Dunkineely,7.0,54.586791000000005,-8.43406
1219,Killybegs,Killybegs,555.0,54.6362345,-8.4442592
1220,Killyclug,Edenacarnan,466.0,54.975556000000005,-7.773889
1221,Killydesert,Edenacarnan,23.0,54.997763799999994,-7.768346679394591
1222,Killydonnell,Rathmelton,33.0,55.01732555,-7.600130900431313
1223,Killygarvan Upper,Rathmullan,6.0,55.12136345,-7.534238084302567
1224,Killygordon,Killygordon,434.0,54.7972,-7.6833029999999995
1225,Killylastin,Edenacarnan,413.0,54.9793059,-7.755329423979053
1226,Killymasny,Killymasny,82.0,54.91775055,-7.8582026630949215
1227,Killynure or Wilson'sfort,Convoy,127.0,54.846070999999995,-7.714397
1228,Killyverry,Newtown Cunningham,82.0,54.991944,-7.541944
1229,Kilmackilloo,Críoch na Sméar,59.0,55.11546175,-7.924095572691519
1230,Kilmacreddan,Inver,60.0,54.640969999999996,-8.31754862619508
1231,Kilmacrenan,Kilmacrenan,535.0,55.0305186,-7.7792107999999995
1232,Kilmonaster Lower,Clonleigh South,15.0,54.83241955,-7.576897351812128
1233,Kilmonaster Middle,Clonleigh South,20.0,54.82660405,-7.5756016858330355
1234,Kilmore,Gartán,26.0,55.02273595,-7.87754773454637
1235,Kilpheak,Killymasny,48.0,54.9450132,-7.879034972773844
1236,Kilrean,An Clochán,23.0,54.781108999999994,-8.3200694
1237,Kilrean Lower,Ard an Rátha,14.0,54.777645400000004,-8.343527941962844
1238,Kilrean Upper,Ard an Rátha,136.0,54.769781900000005,-8.301648667394844
1239,Kilross,Stranorlar,19.0,54.834722,-7.745278
1240,Kiltole,Figart,461.0,54.8590549,-7.647098759225892
1241,Kiltown,Killygordon,10.0,54.799507299999995,-7.661333225060752
1242,Kiltoy,Castlewray,101.0,54.963128000000005,-7.7013665
1243,Kiltyfergal,An Clochán,63.0,54.82623555,-7.904346319043093
1244,Kimmid,Pettigoe,19.0,54.55528985,-7.850728446489402
1245,Kincaslough,Inis Mhic an Doirn,37.0,55.02523589999999,-8.39086010962452
1246,Kincraigy,Kincraigy,49.0,54.92192025,-7.647683908182381
1247,Kindroghed,Gleneely,16.0,55.26277660000001,-7.1338873
1248,Kingarrow,Baile na Finne,26.0,54.9,-8.038333
1249,Kinletter,Knock,66.0,54.761018299999996,-7.787370441727608
1250,Kinnacally,St. Johnstown,31.0,54.931427,-7.493475510503178
1251,Kinnaderry,An Clochán,31.0,54.82716995,-7.8796099001471305
1252,Kinnagoe,Illies,91.0,55.161708,-7.403253599999999
1253,Kinnakillew,Cill Ghabhlaigh,33.0,54.7166813,-8.696723
1254,Kinnalargy,Ros Goill,73.0,55.1989306,-7.819748307587982
1255,Kinnalough,Fánaid Thuaidh,21.0,55.2369188,-7.67153700381073
1256,Kinnea,Dunaff,100.0,55.2743353,-7.4736561624109825
1257,Kinnoghty,Gleann Gheis,44.0,54.76196405,-8.44142316481868
1258,Kirkneedy,Killymasny,27.0,54.906641799999996,-7.808257000000001
1259,Kirkstown,Ballymacool,103.0,54.958372999999995,-7.7822371
1260,Knader,Ballyshannon Rural,83.0,54.5028611,-8.150397834189384
1261,Knock (ED Culdaff),Culdaff,15.0,55.28854575,-7.143460358045938
1262,Knock (ED Knock),Knock,160.0,54.78003455,-7.771837231720218
1263,Knockagar,Eanymore,30.0,54.68430290000001,-8.167740171732483
1264,Knockagarran,Convoy,65.0,54.838885999999995,-7.7229106481255805
1265,Knockamany,Ardmalin,10.0,55.3295666,-7.332341809219532
1266,Knockastoller,Machaire Chlochair,273.0,55.05091165,-8.293999798467521
1267,Knockbrack (ED Carrowkeel),An Cheathrú Chaol,25.0,55.18852745,-7.643027754407778
1268,Knockbrack (ED Magheraboy),Magheraboy,135.0,54.913332999999994,-7.683056
1269,Knockergrana,Culdaff,8.0,55.26782155,-7.131749228771336
1270,Knockfair,Stranorlar,20.0,54.81606,-7.755338
1271,Knockfola,Mín an Chladaigh,182.0,55.142222,-8.28
1272,Knockglass,Ardmalin,6.0,55.3278776,-7.313148614392482
1273,Knocknabollan,Kilmacrenan,41.0,55.0500011,-7.811387791430438
1274,Knocknafaugher,Ards,17.0,55.1685793,-7.939602000000001
1275,Knocknahorna,Inver,41.0,54.64493515,-8.325329930989806
1276,Knocknamona,Letterkenny Rural,353.0,54.9635762,-7.724591703995339
1277,Knocknashangan,Carrickboy,12.0,54.47740125,-8.118386245175872
1278,Knockrawer,Castlefinn,16.0,54.8304027,-8.192536800000001
1279,Knockybrin,Castlewray,49.0,54.9835076,-7.7063369999999995
1280,Labbadish,Kincraigy,77.0,54.933333,-7.616667
1281,Lackagh,Dawros,43.0,54.83916465,-8.484832459803924
1282,Lackcrom,Haugh,13.0,54.70333299999999,-8.117778
1283,Lacklea,An Ghrafaidh,14.0,54.78403705,-8.178673137166317
1284,Lacklom,Ballintra,14.0,54.58601555,-8.156118842437415
1285,Lacknacoo,Gartán,20.0,55.0099128,-7.9201252235752
1286,Laconnell,Inis Caoil,35.0,54.760278,-8.499722
1287,Laddan,Fánaid Thiar,16.0,55.22406105,-7.727628429260122
1288,Lagacurry,Ballyliffin,59.0,55.31,-7.339722
1289,Laghy,Laghy,82.0,54.615635399999995,-8.0884261
1290,Laheen,Cavangarden,30.0,54.537778,-8.138889
1291,Lane Head,Castlewray,33.0,55.062444799999994,-7.354468600000001
1292,Laraghirril,Culdaff,40.0,55.26640075,-7.162529796503974
1293,Larganreagh,Ros Goill,124.0,55.199167,-7.83
1294,Largnalarkan,Baile na Finne,11.0,54.88114,-8.034993759162896
1295,Largnalore,An Clochán,22.0,54.84748845,-7.852218441914602
1296,Largybrack,Inis Caoil,8.0,54.73601975,-8.599827124720608
1297,Largymore,An Leargaidh Mhór,11.0,54.62781700000001,-8.540409
1298,Largynagreana,Killybegs,9.0,54.64931615,-8.459740814524741
1299,Largysillagh,Crownarad,75.0,54.64177995,-8.510851478395796
1300,Leabgarrow (Aran Island),Árainn Mhór,115.0,54.99506525,-8.503475483498871
1301,Leabrannagh (Aran Island),Árainn Mhór,23.0,54.9789541,-8.528841664717929
1302,Leaght,Killygordon,79.0,54.816111,-7.6475
1303,Leamacrossan,Whitecastle,25.0,55.1503333,-7.247043762223097
1304,Leamagowra,Inis Caoil,3.0,54.72531605,-8.507686062139872
1305,Leat Beg,Fánaid Thiar,25.0,55.20067955,-7.762193584225527
1306,Leckbeg,Inis Mhic an Doirn,21.0,54.9866901,-8.43807560898458
1307,Leckenagh,Inis Mhic an Doirn,145.0,54.9764449,-8.418978072925992
1308,Lederg,Desertegny,17.0,55.21420985,-7.526188940018315
1309,Lefinn,Inis Mhic an Doirn,36.0,54.97770555,-8.377547478862093
1310,Legacurry,Tullynaught,8.0,54.62418475,-8.123067415989398
1311,Legaltan,Ballyshannon Rural,31.0,54.52007445,-8.192151659557501
1312,Legboy,Grianfort,8.0,55.20534129999999,-7.672454300000001
1313,Leggandorragh,Clonleigh South,8.0,54.82486065,-7.508304991766128
1314,Leghawny,Tullynaught,89.0,54.66390885,-8.006108900237969
1315,Legland (ED Killygarvan),Killygarvan,5.0,55.11784425000001,-7.572796054792197
1316,Legland (ED Lettermore),Lettermore,20.0,54.875876700000006,-7.77327651676551
1317,Legmuckduff,Glenalla,36.0,55.0741693,-7.675654029671903
1318,Legnabraid or Cunninghamstown,Clonleigh South,21.0,54.81661,-7.564094
1319,Legnahoory,Edenacarnan,111.0,55.003611,-7.804722
1320,Legnanornoge,Ballintra,25.0,54.5722945,-8.080149743121396
1321,Legnatraw,St. Johnstown,55.0,54.9109889,-7.498275960506938
1322,Lehardan,Cnoc Colbha,60.0,55.14305600000001,-7.564444
1323,Leitrim (ED Castleforward),Castleforward,16.0,54.989680299999996,-7.450547497064778
1324,Leitrim (ED Turmone),Turmone,60.0,55.24516345,-7.09460130393947
1325,Lenan,Dunaff,102.0,55.250556,-7.515833
1326,Lergadaghtan (ED Glencolumbkille),Gleann Cholm Cille,32.0,54.63629215,-8.647612241168673
1327,Lergadaghtan (ED Largymore),An Leargaidh Mhór,8.0,54.61906065,-8.576160298474361
1328,Lergynasearhagh,Inis Caoil,10.0,54.726891599999995,-8.568632152933219
1329,Letter (ED Dunaff),Dunaff,115.0,55.26337829999999,-7.486520070656372
1330,Letter (ED Fahan),Fahan,33.0,55.0821105,-7.4381727
1331,Letter (ED Kilmacrenan),Kilmacrenan,129.0,55.03036625,-7.748071980551991
1332,Letter (ED Largymore),An Leargaidh Mhór,41.0,54.62774770000001,-8.57038102088729
1333,Letterbarra,Eanymore,61.0,54.69055600000001,-8.181667
1334,Letterbrick,An Clochán,82.0,54.8653411,-7.988676270917969
1335,Lettercau,Cró Bheithe,19.0,54.97817405,-8.283045604848073
1336,Lettercran,Grousehall,9.0,54.60928765,-7.719560366188578
1337,Letterfad (ED Eanymore),Eanymore,26.0,54.7227755,-8.166154374912235
1338,Letterfad (ED Kilmacrenan),Kilmacrenan,10.0,55.04569,-7.794540601736784
1339,Lettergull,Feddyglass,16.0,54.900889799999995,-7.525696099999999
1340,Letterilly,Na Gleannta,49.0,54.80977855,-8.325628331011986
1341,Letterkenny,Letterkenny Urban,2199.0,54.9517933,-7.7354381
1342,Letterleague,Corravaddy,86.0,54.918520900000004,-7.7705328
1343,Lettermakenny,Stranorlar,66.0,54.82833299999999,-7.787222
1344,Lettermore (ED Binbane),An Bhinn Bhán,10.0,54.711667000000006,-8.242222
1345,Lettermore (ED Lettermore),Lettermore,45.0,54.8615998,-7.7705697
1346,Lettershanbo (ED Cloghan),An Clochán,42.0,54.8509339,-7.888774404209863
1347,Lettershanbo (ED Lettermore),Lettermore,21.0,54.8821757,-7.814504858599688
1348,Lettertreane,Eanymore,38.0,54.70321745,-8.180357510526191
1349,Liafin,Desertegny,106.0,55.18368605000001,-7.494987136950276
1350,Lifford,Clonleigh South,408.0,54.83308879999999,-7.483624099999999
1351,Lifford Common,Clonleigh South,239.0,54.83635485,-7.498166653700565
1352,Linsfort,Desertegny,89.0,55.171943999999996,-7.497222
1353,Lisavaddy,Corkermore,7.0,54.656389000000004,-8.352222
1354,Lisclamerty,Kincraigy,26.0,54.916080750000006,-7.6245406846459325
1355,Liscooly,Killygordon,19.0,54.799443999999994,-7.642778
1356,Lisfannan (ED Burt),Burt,19.0,55.04050545,-7.402396716989156
1357,Lisfannan (ED Fahan),Fahan,219.0,55.090936,-7.47803
1358,Liskeeraghan,Gleann Gheis,16.0,54.786295,-8.482102000074624
1359,Liskeran,Stranorlar,11.0,54.84069195,-7.7967106843000735
1360,Liskey,Clonleigh North,41.0,54.84533620000001,-7.552512400850219
1361,Lismintan or Ballyruddelly,Ballintra,98.0,54.580739,-8.113828
1362,Lismoghry,Treantaghmucklagh,70.0,54.938123399999995,-7.549968499999999
1363,Lismonaghan,Corravaddy,696.0,54.9342236,-7.7404747
1364,Lismullyduff,Gleneely,109.0,54.7464027,-7.7453867
1365,Lisnamulligan,Cloghard,28.0,54.77987930000001,-7.618182375421973
1366,Lisnanees Upper,Castlewray,35.0,54.98752339999999,-7.6905984
1367,Lisnapaste,Ballintra,84.0,54.593417,-8.085552791241305
1368,Lisnaree (ED Stranorlar),Stranorlar,19.0,54.83536225,-7.739464710189099
1369,Lisnenan,Letterkenny Rural,633.0,54.97079889999999,-7.7082992
1370,Lissacholly,Carrickboy,56.0,54.47762879999999,-8.142771635670812
1371,Listack,Corravaddy,8.0,54.91055600000001,-7.770556
1372,Listannagh,Feddyglass,15.0,54.88372,-7.509562184110836
1373,Listellian,Magheraboy,233.0,54.9193197,-7.697742900000001
1374,Listicall Lower,Killea,58.0,54.96757395,-7.47869807173079
1375,Listicall Upper,Killea,15.0,54.9648935,-7.498085583744003
1376,Longfield (ED Lettermacaward),Leitir Mhic an Bhaird,15.0,54.84819505,-8.331350045630959
1377,Longhill (ED Glenalla),Glenalla,12.0,55.07059520000001,-7.640005554358829
1378,Losset,Gartán,43.0,55.031667000000006,-7.882778
1379,Loughagannon,Castlewray,27.0,54.9957402,-7.694997272880753
1380,Loughagher,Cró Bheithe,11.0,54.97335875,-8.235716678084511
1381,Loughanure,Anagaire,387.0,54.997222,-8.290833000000001
1382,Loughaskerry,An Tearmann,12.0,55.0345581,-7.9213167
1383,Lougheask Demesne,Loch Iascaigh,89.0,54.68933979999999,-8.066009334193245
1384,Lougherbraghy,Malin,30.0,55.33752245,-7.234732142203707
1385,Loughfad (ED Maas),Maas,70.0,54.8240106,-8.409366338727011
1386,Loughmuck,Gleann Léithín,8.0,54.8539213,-8.117659562499995
1387,Loughmuilt,Dunkineely,19.0,54.67092725,-8.369748002084451
1388,Loughnagin,Castlewray,243.0,54.9714402,-7.690673279811811
1389,Loughros Glebe,Glenalla,26.0,55.07590775,-7.665458489259043
1390,Loughsalt,An Machaire,9.0,54.91611795,-8.397685471159091
1391,Loughnambraddan,Baile na Finne,14.0,54.87108170000001,-8.14422884926818
1392,Lower Maymore,St. Johnstown,41.0,54.91213045,-7.456948598635738
1393,Luddan,Buncrana Rural,317.0,55.116111,-7.451111
1394,Lughveen,An Ghrafaidh,7.0,54.8451801,-8.088217803308327
1395,Lunniagh,Machaire Chlochair,170.0,55.09422375,-8.297973123258103
1396,Lurgabrack,Dún Fionnachaidh,50.0,55.18847589999999,-7.995230872395125
1397,Lurgan,Ballintra,12.0,54.54869650000001,-8.159393077322562
1398,Lurganboy (ED Ardara),Ard an Rátha,13.0,54.76052095,-8.396654871320338
1399,Lurganboy (ED Donegal),Donegal,32.0,55.124441299999994,-7.5842244999999995
1400,Lurganboy (ED Greenfort),Grianfort,3.0,55.22293485,-7.6122913085022
1401,Lurganboy (ED Killygarvan),Killygarvan,22.0,55.124441299999994,-7.5842244999999995
1402,Lurganbrack,Cnoc Colbha,20.0,55.16616915,-7.59587518700738
1403,Lurganshannagh,Clonleigh North,14.0,54.8498291,-7.568772620725559
1404,Lurgy,Magheraboy,17.0,54.920186,-7.683222852976933
1405,Lurgybrack,Magheraboy,18.0,54.9347817,-7.6978331016207475
1406,Maas,Maas,59.0,54.82695475,-8.36440883728044
1407,Macmeenstown,Convoy,26.0,54.86859775,-7.685156737947245
1408,Madavagh,Leitir Mhic an Bhaird,61.0,54.85411070000001,-8.30604368408872
1409,Magheestown,Figart,15.0,54.89561365,-7.585203130087963
1410,Maghera,Inis Caoil,8.0,54.762070400000006,-8.527170199999999
1411,Maghera Beg,Manorcunningham,37.0,54.9655951,-7.6146580315811905
1412,Maghera More,Manorcunningham,13.0,54.9580048,-7.628629275731421
1413,Magherabeg (ED Fahan),Fahan,149.0,55.0665716,-7.4429506
1414,Magherabeg (ED Rosguill),Ros Goill,93.0,55.20000885,-7.82877515160553
1415,Magherablad,Caisleán na dTuath,24.0,55.13495965,-7.885065097635659
1416,Magheraboy (ED Killygordon),Killygordon,85.0,54.80667225000001,-7.654515800063867
1417,Magheraboy (ED Magheraboy),Magheraboy,45.0,54.93977615,-7.660819385528683
1418,Magheraboy (ED Raphoe),Raphoe,68.0,54.87620275,-7.588098122825242
1419,Magheracar,Bundoran Rural/Bundoran Urban,1285.0,54.47085865,-8.287791946358329
1420,Magheraclogher,Machaire Chlochair,444.0,55.06415115,-8.298831932557864
1421,Magheracloy,Treantaghmucklagh,32.0,54.92114945,-7.520483427922965
1422,Magheracorran,Convoy,47.0,54.8469016,-7.734162239004634
1423,Magheradrumman (ED Ballyarr),Ballyarr,108.0,55.06397035000001,-7.681033898809526
1424,Magheradrumman (ED Fanad North),Fánaid Thuaidh,65.0,55.23873115,-7.664773447813076
1425,Magheradrumman (ED Gleneganon),Glennagannon,232.0,55.22464235,-7.213488679679202
1426,Magheragallan,Machaire Chlochair,214.0,55.08097985,-8.300329680668629
1427,Magherahaan,Raphoe,40.0,54.86177785,-7.588554335004085
1428,Magherahee,Castlefinn,20.0,54.84549975,-7.637229024521325
1429,Magheralahan,Whitecastle,6.0,55.2756204,-7.3268302
1430,Magheramagorgan,Carraig Airt,9.0,55.1636968,-7.821791866186953
1431,Magheramenagh,Dún Fionnachaidh,39.0,55.1558427,-8.001232918983304
1432,Magheranan,Castlewray,446.0,54.956933400000004,-7.699073178683693
1433,Magheranappan,Convoy,91.0,54.863034,-7.713599925948211
1434,Magheranaul,Ballyliffin,52.0,55.293068999999996,-7.330610000000001
1435,Magherapaste,Stranorlar,18.0,54.80955805,-7.7819483824820885
1436,Magherareagh,Castlefinn,23.0,54.79982915,-7.557437335628843
1437,Magheraroarty (ED Creeslough),An Craoslach,14.0,55.12844875,-7.894247577332432
1438,Magheraroarty (ED Gortahork),Gort an Choirce,217.0,55.14111460000001,-8.172833500000001
1439,Magheraroarty Mountain,Gort an Choirce,41.0,55.1057655,-8.210448296399933
1440,Magherasollus,Figart,31.0,54.88459825,-7.582081310279424
1441,Magheravall or Midcut,Lettermore,12.0,54.854126,-7.811942
1442,Magherawardan,An Cheathrú Chaol,33.0,55.18139995,-7.603838675722453
1443,Maghery Glebe,An Machaire,100.0,54.92744405,-8.435189167726218
1444,Magheryard,Malin,26.0,55.29782120000001,-7.3179354000000005
1445,Magherycallaghan,Urney West,18.0,54.78838155,-7.561789385452553
1446,Malin Beg,Málainn Bhig,80.0,54.66841579999999,-8.7817659
1447,Malin More,Málainn Bhig,116.0,54.6873715,-8.753587014238793
1448,Manorcunningham,Manorcunningham,294.0,54.954640500000004,-7.622269500000001
1449,Manorcunningham Churchland,Manorcunningham,264.0,54.9513711,-7.626596888007837
1450,Marblehill,Ards,5.0,55.17433835,-7.904136368934225
1451,Masiness,An Craoslach,104.0,55.129818799999995,-7.914316
1452,Massreagh,Kilmacrenan,146.0,55.021741000000006,-7.788505000000001
1453,Meenabaltin,Whitecastle,21.0,55.16624295,-7.216175913432098
1454,Meenabollagan,An Machaire,59.0,54.926,-8.385481
1455,Meenabrock (ED Corkermore),Corkermore,44.0,54.67405575,-8.346682903763009
1456,Meenacahan,An Bhinn Bhán,23.0,54.72663275,-8.265646153518116
1457,Meenacally,Donegal,30.0,54.6810705,-8.150450330842402
1458,Meenacargagh or Raneany Barr,Laghy,14.0,54.630347,-7.991869
1459,Meenacarn,Leitir Mhic an Bhaird,20.0,54.88188829999999,-8.3143394
1460,Meenachallow,Na Gleannta,74.0,54.783333,-8.271666999999999
1461,Meenacharvy,Cill Ghabhlaigh,38.0,54.71741305000001,-8.620455334592798
1462,Meenaclady,Mín an Chladaigh,93.0,55.12056045,-8.262390325461165
1463,Meenacross (ED Kilgoly),Cill Ghabhlaigh,13.0,54.724722,-8.651389
1464,Meenacross (ED Maghery),An Machaire,36.0,54.907778,-8.382222
1465,Meenacung (ED Magheraclogher),Machaire Chlochair,19.0,55.045544799999995,-8.192144800000001
1466,Meenadiff (ED Kilgoly),Cill Ghabhlaigh,14.0,54.72003539999999,-8.647609866889837
1467,Meenadiff (ED Mintiaghs),Mintiaghs,8.0,55.21898829999999,-7.410008500000001
1468,Meenadoan,Baile na Finne,20.0,54.897737,-8.078441
1469,Meenadreen (ED Kilgoly),Cill Ghabhlaigh,9.0,54.719443999999996,-8.663889
1470,Meenadreen (ED Tullynaught),Tullynaught,24.0,54.65681725,-7.986983290386977
1471,Meenaduff,Machaire Chlochair,89.0,55.2279274,-7.4115690999999995
1472,Meenagolan (ED Fintown),Baile na Finne,34.0,54.86665455000001,-8.027560954841952
1473,Meenagolan (ED Gleneely),Gleneely,29.0,54.733889000000005,-7.745556
1474,Meenagory,Mintiaghs,226.0,55.167927950000006,-7.4541218887709455
1475,Meenagowan,Leitir Mhic an Bhaird,50.0,54.848572499999996,-8.320202794747733
1476,Meenagowna,Inis Mhic an Doirn,18.0,54.9954667,-8.438396133016894
1477,Meenagran,An Bhinn Bhán,21.0,54.70399305,-8.249868293133224
1478,Meenagrauv (ED Altnapaste),Allt na Péiste,24.0,54.80423505,-7.89299899465256
1479,Meenagrillagh,Maas,6.0,54.80470915,-8.417388300229891
1480,Meenagrubby,An Ghrafaidh,12.0,54.81905605,-8.135574087632968
1481,Meenahinnis,Gleneely,22.0,54.7548399,-7.739761040145288
1482,Meenahoney,Killygordon,11.0,54.81628555,-7.622775956728977
1483,Meenahorna,An Clochán,6.0,54.85206995,-7.863712786476243
1484,Meenakillew,Gleann Gheis,25.0,54.71924195,-8.42949864925108
1485,Meenalaban,Lettermore,14.0,54.85876125,-7.835146855233388
1486,Meenalargan,Na Gleannta,24.0,54.825971100000004,-8.284419900000001
1487,Meenalecky,Anagaire,151.0,55.02894105,-8.285653909814291
1488,Meenalig,An Clochán,33.0,54.762213,-8.3378351
1489,Meenalooban,Desertegny,20.0,55.17617325,-7.506093098340693
1490,Meenamalragh,An Ghrafaidh,9.0,54.816521400000006,-8.210358037757809
1491,Meenamullaghan,Illies,12.0,55.14378195000001,-7.3754292919633375
1492,Meenanarwa,An Ghrafaidh,14.0,54.83100365,-8.099220175850682
1493,Meenaneary,Gleann Cholm Cille,79.0,54.69832505,-8.625194973594954
1494,Meenanillar,Machaire Chlochair,186.0,55.06559845,-8.263663031545653
1495,Meenasrone North,Gleann Léithín,15.0,54.86919029999999,-8.082701754777592
1496,Meenataggart,Haugh,9.0,54.720278,-8.124167
1497,Meenatinny,Suí Corr,13.0,54.91214865,-8.018769626979497
1498,Meenatole,Rathmelton,11.0,55.0105045,-7.697873228949398
1499,Meenavale,An Ghrafaidh,6.0,54.80773635,-8.152760200525767
1500,Meenavally (ED Mulmosog),Maol Mosóg,10.0,54.71683295,-8.407322112432913
1501,Meenavanaghan,Whitecastle,46.0,54.6211668,-7.9968632669354145
1502,Meenavean,Gleann Cholm Cille,16.0,54.673611,-8.689167
1503,Meenavoy,Stranorlar,82.0,54.8416981,-7.768431666013764
1504,Meenawilligan,Mín an Lábáin,7.0,54.96701855000001,-7.918286506380688
1505,Meenawullaghan,Inver,15.0,54.6713716,-8.314354397736299
1506,Meenbane,Stranorlar,17.0,54.84178905,-7.840879872184899
1507,Meenbannad,Inis Mhic an Doirn,117.0,54.98989720000001,-8.361143835203034
1508,Meenboy,An Leargaidh Mhór,11.0,54.64212295,-8.534353079957683
1509,Meencargagh (ED Dooish),Dooish,41.0,54.78293515,-7.856946290976125
1510,Meencorwick,Machaire Chlochair,28.0,54.984443999999996,-8.241944
1511,Meendacalliagh,Illies,42.0,55.175405500000004,-7.340374611847182
1512,Meenderrygamph,Machaire Chlochair,69.0,55.05772315,-8.230159358483522
1513,Meenderryherk Glebe,Cró Bheithe,14.0,54.94189205,-8.256922314155018
1514,Meenderrynasloe,Anagaire,245.0,55.01604515,-8.290406507735447
1515,Meenderryowan,Anagaire,177.0,55.01429105,-8.335779219349561
1516,Meendoran,Straid,103.0,55.23805600000001,-7.383056
1517,Meendrain,An Machaire,36.0,54.91627985,-8.384724697953335
1518,Meengilcarry (ED Mulmosog),Maol Mosóg,21.0,54.70395635,-8.397525250268604
1519,Meengilcarry (ED Cloghan),An Clochán,8.0,54.87550695,-8.012123220459987
1520,Meenlaragh (ED Gortahork),Gort an Choirce,177.0,55.144721999999994,-8.186667
