,townland,town,population,lat,lng
10086,Abbey Island,Ballyshannon Rural,10,54.5100562,-8.195736816089788
10087,Abbeylands,Ballyshannon Rural,121,54.5130054,-8.204606285120382
10088,Adderville,Straid,54,55.2391118,-7.434771016190289
10089,Adderwal,Gleann Léithín,9,54.90582095,-8.16839922450579
10090,Admiran,Stranorlar,364,54.81115715,-7.765546508740297
10091,Aghadachor,Glen,15,55.1446888,-7.8415925280331
10092,Aghadaghly,Grianfort,7,55.1998623,-7.655744449631827
10093,Aghadowey,Ballintra,28,54.58550365,-8.054880272424963
10094,Aghadreenan,Rosnakill,44,55.187095799999994,-7.661065215491787
10095,Aghafoy,Pettigoe,4,54.5475539,-7.84980622301657
10096,Aghaglassan,Gleneely,65,55.218943550000006,-7.171859150735294
10098,Aghalattive,Ards,48,55.14963335,-7.89149292451755
10099,Aghalatty,Carraig Airt,36,55.1694336,-7.7734793
10102,Aghangaddy Glebe,Rathmelton,127,55.01556755,-7.659640573148819
10103,Aghanursan,Millford,29,55.08894315,-7.681312261732819
10104,Aghasheil,Stranorlar,19,54.8125654,-7.797798471385368
10105,Aghatubbrid,Gleneely,15,55.25466745,-7.146550470122664
10106,Aghavannan Far,Rathmullan,34,55.1055212,-7.54276521794036
10107,Aghavannan Near,Rathmullan,23,55.102434,-7.539338260240871
10108,Aghaveagh,Allt na Péiste,22,54.796667,-7.885278
10109,Aghawee,Clonleigh South,25,54.8156338,-7.541780371295458
10110,Aghawoney,Ballyarr,30,55.04444455,-7.728409050145768
10111,Aghayeevoge,Killybegs,112,54.661659900000004,-8.413179900638596
10112,Aghilly and Lenynarnan,Buncrana Rural,107,55.13521445,-7.4234067199197895
10113,Aghlehard,Magheraboy,77,54.92816485,-7.660571801532299
10114,Aghlem,Tullynaught,18,54.6556085,-8.024356804314346
10115,Aghnahoo Glebe,Templecarn,29,54.538417249999995,-7.853469485544851
10116,Aghnakeeragh,Raphoe,33,54.866206500000004,-7.618070875000003
10117,Aghragh,Gleann Cholm Cille,48,54.650137150000006,-8.655825879732785
10118,Aighan,Dunkineely,28,54.6471578,-8.38273177682711
10119,Aighe,Gleann Gheis,29,54.737222,-8.430833
10120,Alla,Ballyshannon Rural,12,54.54030855,-8.16926504407859
10121,Alt Lower,Urney West,45,54.766667,-7.583333
10122,Alt Upper,Urney West,95,54.765,-7.591389
10123,Altadoo,Donegal,17,54.6813609,-8.1615753
10125,Altaghaderry,Killea,461,54.9877617,-7.40897396103337
10126,Altahalla,Straid,153,55.2448463,-7.4090907
10128,Altaskin,St. Johnstown,24,54.931133200000005,-7.471662321285667
10129,Altatraght,An Clochán,8,54.8279742,-8.021521757000263
10131,Altcor,Bonnyglen,9,54.694713050000004,-8.288873413082687
10132,Altilow,Haugh,40,54.704091149999996,-8.096118513539395
10134,Altlahan,An Clochán,35,54.8580655,-7.9608092
10135,Altnagapple,Maol Mosóg,7,54.728333,-8.376111
10136,Altnapaste,Allt na Péiste,27,54.811803,-7.930795
10137,Annagary,Anagaire,383,55.0216691,-8.3178413
10138,Annagh,Straid,167,55.2777022,-7.4104637591375795
10139,Annaslee,Fahan,17,55.10141215,-7.390992169758949
10140,Anny Far and Near,Cnoc Colbha,27,55.153211,-7.558757793004162
10141,Aphort (Aran Island),Árainn Mhór,49,54.976389,-8.519444
10144,Ardaganny,Corravaddy,42,54.9189384,-7.7359001
10145,Ardagh (ED Ballyliffin),Ballyliffin,81,55.2869319,-7.394015437224294
10146,Ardagh (ED Treantamucklagh),Treantaghmucklagh,49,,
10147,Ardaghy Glebe,Inver,58,54.65575215,-8.287792948101368
10148,Ardahee,Ballymacool,11,54.9335032,-7.7929635
10149,Ardara,Ard an Rátha,548,54.7636255,-8.4105918
10150,Ardaravan,Buncrana Urban,2229,55.1330586,-7.448716563873077
10151,Ardarawer,Castlewray,566,54.9710662,-7.6990895297450805
10152,Ardatowel,Tawnawully,41,54.69973805,-8.016812718512888
10155,Ardbane (ED Eanymore),Eanymore,7,54.718788599999996,-8.14749318175793
10156,Ardbane (ED Rosguill),Ros Goill,23,55.21786285,-7.860806450000007
10159,Ardee,Newtown Cunningham,44,54.996543849999995,-7.552686966744836
10160,Ardeelan Lower,Ballintra,21,54.5495041,-8.203672908884037
10162,Ardeevin,Tawnawully,37,54.691111,-8.019444
10163,Ardeskin,Donegal,201,54.649672550000005,-8.095967585048621
10164,Ardfarn,Bundoran Rural,150,54.4688255,-8.25313255414829
10165,Ardgillew,Cavangarden,12,54.5260219,-8.156463413906431
10166,Ardglass,Grianfort,35,55.2049442,-7.642207102185747
10167,Ardinawark,Tawnawully,75,54.7062157,-7.983915263387098
10168,Ardlenagh,Donegal,18,54.633151049999995,-8.119322770051614
10169,Ardlougher,Maol Mosóg,10,54.8396829,-8.3919185
10170,Ardloughill,Carrickboy,32,54.475092700000005,-8.171089211663855
10171,Ardmalin,Ardmalin,366,55.366231,-7.35879537696078
10172,Ardmeen,Cró Bheithe,21,54.977778,-8.26
10173,Ardmore,Kilderry,359,,
10174,Ardnableask,Tawnawully,10,54.6967887,-8.011708664038878
10175,Ardnaditian,Manorcunningham,41,54.9850327,-7.5944562719747
10176,Ardnagalliagh,Ballintra,10,54.58044135,-8.14341762526569
10177,Ardnagannagh,Gleneely,28,54.7879729,-7.6744767531019376
10178,Ardnagappary,Machaire Chlochair,327,55.0819343,-8.3163635
10180,Ardnaglass (ED Clonleigh South),Clonleigh South,25,54.815278,-7.549722
10181,Ardnaglass (ED Pettigoe),Pettigoe,80,54.5524709,-7.837418815378461
10184,Ardnasool,Clonleigh North,38,54.8451786,-7.560387147728735
10185,Ardpattan,Cavangarden,9,54.531795200000005,-8.163508100661904
10186,Ardrumman,Castlewray,98,55.0074992,-7.630484967444117
10188,Ards Beg,Gort an Choirce,316,55.11396085,-8.174159471703298
10189,Ards Big,Rathmelton,17,55.02032215,-7.684558763712683
10190,Ards Little,Rathmelton,22,55.018164999999996,-7.702635971438026
10191,Ards More,Gort an Choirce,88,55.12284765,-8.141378925077813
10194,Arduns,Machaire Chlochair,50,55.0302961,-8.21340000072492
10195,Ardvally,Maol Mosóg,12,54.7398068,-8.3806388
10196,Ardvarnock Glebe,Figart,19,54.87253245,-7.647971871900389
10197,Arlands,Inis Mhic an Doirn,75,55.00309915,-8.4344187863665
10198,Arryheernabin,Fánaid Thuaidh,13,55.27,-7.640556
10200,Altashane or Cabadooey,Carndonagh,63,,
10201,Attatantee,Machaire Chlochair,7,55.0781001,-8.216983441749054
10204,Aughagault Big,Convoy,64,54.8650347,-7.7346847
10206,Aughnish,Rathmelton,138,55.0391531,-7.608063878143476
10208,Aught,Three Trees,233,55.123938249999995,-7.277726919168671
10210,Avaltygort,Gleneely,51,54.7837007,-7.686292273656484
10212,Backland,Clonleigh South,6,54.8324667,-7.549732021240988
10213,Backlees,Stranorlar,17,,
10215,Ballagh,Malin,35,55.3171588,-7.281846626618396
10216,Ballaghderg,Gortnavern,464,54.9855855,-7.7252095
10217,Ballard,Cill Ghabhlaigh,20,54.8073692,-7.9652757
10218,Balleeghan (ED Greencastle),Greencastle,112,55.2247493,-6.98141340559678
10219,Balleeghan (ED Manorcunningham),Manorcunningham,61,54.9798794,-7.598457504385799
10220,Balleeghan Lower,Carthage,70,55.29885425,-7.223633134184843
10221,Balleeghan Upper,Carthage,92,55.3003147,-7.2360022062214115
10222,Balleelaghan,Malin,40,55.31328875,-7.273294821595837
10223,Ballina,Rosnakill,18,55.19477325,-7.692013784202465
10224,Ballincrick and Ballynabrocky,Fánaid Thuaidh,59,55.25807945,-7.664208628002555
10225,Ballindrait,Clonleigh North,77,54.844167,-7.525833
10226,Ballinlough,Mintiaghs,43,55.21244265,-7.3680116899511
10227,Ballintemple,Na Croisbhealaí,93,55.1220749,-8.092961194096645
10228,Ballintlieve,Mintiaghs,45,55.22178085,-7.396891338477976
10230,Ballintra (Aran Island),Árainn Mhór,89,54.979167,-8.501389
10231,Ballintra (ED Ballintra),Ballintra,115,54.5774828,-8.1251832
10232,Balloor,Fánaid Thuaidh,31,55.0779126,-7.7449482
10234,Ballyannan,Desertegny,67,55.19545095,-7.46272285051888
10235,Ballyara,Killybegs,41,54.6559625,-8.474867494244258
10236,Ballyargus,Redcastle,229,55.166667,-7.166667
10237,Ballyarr,Ballyarr,99,55.02852515,-7.70471169607427
10238,Ballyarr Glebe,Ballyarr,95,55.0343178,-7.7047373542954105
10239,Ballyarrell,Gleneely,58,54.789756049999994,-7.656611368984886
10241,Ballybegly,Newtown Cunningham,67,54.990556,-7.586944
10242,Ballybegly Little,Manorcunningham,39,54.99894435,-7.5735552773199935
10243,Ballybobaneen,Allt na Péiste,32,54.817660200000006,-7.924752073555249
10244,Ballybodonnell,Dunkineely,10,54.62365815,-8.353861873310674
10245,Ballyboe (ED Convoy),Convoy,83,54.856298699999996,-7.655811870727462
10246,Ballyboe (ED Corravaddy),Corravaddy,48,54.9250726,-7.7428806
10247,Ballyboe (ED Creeslough),An Craoslach,19,55.1096562,-7.91772995883175
10248,Ballyboe (ED Cross Roads),Na Croisbhealaí,114,55.146263649999995,-8.048894869642046
10250,Ballyboe (ED Killea),Killea,16,54.988661199999996,-7.421010867669606
10252,Ballyboe (ED Rathmelton),Rathmelton,155,55.04040815,-7.650756767118287
10253,Ballyboe Glencar,Letterkenny Rural,1809,54.9582478,-7.7438219
10256,Ballyboencurragh,Castlewray,35,54.99265655,-7.6785283709444965
10257,Ballybofey,Stranorlar,1506,54.7990639,-7.7819496
10258,Ballybogan,Clonleigh South,28,54.80686105,-7.535709032945443
10259,Ballybokeel,Rathmelton,9,55.0332604,-7.630007415373725
10260,Ballybolauder,Templedouglas,22,54.98029165,-7.845754678762551
10261,Ballybotemple,An Clochán,8,54.8264678,-7.916651776328829
10262,Ballyboyle,Donegal,41,54.6409637,-8.1441356
10263,Ballybrack,Moville,213,,
10264,Ballybrollaghan,Tantallon,116,54.66479975,-8.23160317931162
10265,Ballybulgan,Ballintra,27,54.59221735,-8.137283351469776
10266,Ballybun,Cloghard,107,54.781111,-7.610278
10267,Ballybuninabber,An Tearmann,30,55.048988449999996,-7.884431665937802
10268,Ballycallan,An Cheathrú Chaol,11,55.171564149999995,-7.621703050113645
10269,Ballycharry,Turmone,65,55.26877655,-7.097680270765913
10270,Ballyconnell,Na Croisbhealaí,165,55.1482138,-8.090329971642843
10271,Ballyconnelly (ED Glenalla),Glenalla,33,55.07639925,-7.619882283860723
10272,Ballyconnelly (ED Ballymacool),Ballymacool,51,54.9275261,-7.7876773
10273,Ballycramsy,Malin,19,55.31455875,-7.304939294170547
10274,Ballycroy,Dunkineely,18,54.592592499999995,-8.417550370058231
10275,Ballycushion,Killea,23,54.95199055,-7.501709848917952
10276,Ballydermot,Ballintra,54,54.5830245,-8.06443206545715
10277,Ballydevitt,Donegal,60,54.6761394,-8.1354071
10278,Ballydevitt Beg,Donegal,110,54.6693546,-8.129920585156917
10279,Ballyederlan,Dunkineely,24,54.604167,-8.379167
10280,Ballyederowen,Birdstown,462,55.05590245,-7.390347329184344
10282,Ballygallan,Mín Charraigeach,19,54.9123568,-7.89771027138587
10283,Ballygawley,Killymasny,22,54.8009284,-7.63114
10286,Ballygorman,Ardmalin,81,55.3575,-7.311667
10287,Ballygreen,Rathmelton,16,55.0377974,-7.566218711732663
10288,Ballyhanna,Carrickboy/Ballyshannon Urban,63,54.4977353,-8.176197508435493
10289,Ballyhasky,Castleforward,431,54.99127245,-7.500310493638366
10290,Ballyheerin,Fánaid Thiar,67,55.1961531,-7.7263674
10291,Ballyhiernan,Fánaid Thuaidh,23,55.2396733,-7.712803991307247
10292,Ballyholey Far,Kincraigy,54,54.90878335,-7.58048017860475
10293,Ballyholey Near,Figart,66,54.89161435,-7.575602300351578
10294,Ballyhoorisky,Fánaid Thiar,22,55.245,-7.7425
10295,Ballyhork,Fánaid Thiar,19,55.21039165,-7.735271027334065
10297,Ballykeeran,Kilmacrenan,253,55.02537435,-7.765062198152403
10298,Ballykenny (ED Ardmalin),Ardmalin,8,55.3408265,-7.297985074632287
10299,Ballykenny (ED Glenalla),Glenalla,15,55.0641496,-7.603603813311688
10300,Ballykergan,Allt na Péiste,41,54.803966,-7.956241922669173
10301,Ballykillowen,Laghy,29,54.636637300000004,-8.014507554353978
10302,Ballykinard,Rosnakill,11,55.18616095,-7.678929388754661
10303,BallylaSt. (Raphoe South By),Castlefinn,45,,
10304,Ballylawn (ED Castlecary),Castlecary,61,55.1893437,-7.086883240021473
10305,Ballylawn (ED Manorcunningham),Manorcunningham,81,54.99090295,-7.585381827897763
10306,Ballylennan,Feddyglass,60,54.8891227,-7.5194985
10307,Ballylevin,Manorcunningham,21,54.9882474,-7.5712127
10308,Ballyliffin,Ballyliffin,226,55.2803119,-7.3935529
10309,Ballylin,Rathmelton,31,55.0478691,-7.575731723960665
10310,Ballylosky,Glentogher,915,55.236030799999995,-7.261655829421111
10311,Ballyloughan,Killybegs,79,54.633611,-8.408611
10312,Ballymacahil,Bonnyglen,33,54.68597535,-8.253535714821764
10313,Ballymacarry,Buncrana Rural/Buncrana Urban,1913,55.14443585,-7.441892143340661
10314,Ballymacarry Lower,Buncrana Urban,655,55.124743550000005,-7.45314664962917
10315,Ballymacarthur,Greencastle,203,55.22055865,-7.001199365824318
10316,Ballymacavany,Pettigoe,15,,
10317,Ballymacaward,Ballyshannon Rural,109,54.51467625,-8.240127955707203
10318,Ballymackilduff,Dawros,34,54.82024505,-8.42279155980108
10319,Ballymacmoriarty,Ballyliffin,6,55.2941512,-7.366339874354939
10320,Ballymacool,Ballymacool,833,54.9472497,-7.7640238
10321,Ballymacphadin,Cill Charthaigh,26,54.661432250000004,-8.590913532409566
10323,Ballymagahy North,Grianfort,13,55.2077759,-7.666949657631405
10324,Ballymagahy South,Rosnakill,13,55.197261049999994,-7.669260818496005
10325,Ballymagan Upper and Lower and Clonblosk,Illies,295,55.150026499999996,-7.425878269204208
10326,Ballymagaraghy,Turmone,19,55.2677141,-7.0544073
10327,Ballymagowan,Dunkineely,200,54.63558905,-8.35055540739189
10328,Ballymagowan Lower,An Cheathrú Chaol,39,55.1649345,-7.6764198
10329,Ballymagowan Upper,An Cheathrú Chaol,32,55.16902025,-7.664261612016577
10330,Ballymagrorty,Cavangarden,7,54.55378345,-8.054096867406187
10331,Ballymagrorty Irish,Ballintra,38,54.5556645,-8.141488967224566
10332,Ballymagrorty Scotch,Ballintra,92,54.5658863,-8.13708659428178
10333,Ballymaleel,Castlewray,109,54.9823487,-7.6712385
10335,Ballymichael,Fánaid Thuaidh,20,55.2687949,-7.661968232416177
10337,Ballymoney,Burt,10,55.037778,-7.506944
10338,Ballymoon,An Leargaidh Mhór,10,54.65384,-8.566732765371484
10340,Ballymore Lower,Ards,27,55.1600126,-7.9161171712815115
10341,Ballymore Upper,Ards,24,55.1549611,-7.935184563731331
10342,Ballymunterhiggin,Bundoran Rural,81,54.479113749999996,-8.189154121825434
10343,Ballynabreen,Clonleigh South,61,54.836960899999994,-7.519649512394887
10344,Ballynacarrick (ED Ballintra),Ballintra,63,54.56662315,-8.121760467523487
10345,Ballynacarrick (ED Carrickboy),Carrickboy,35,,
10346,Ballynacor,Gleneely,133,54.7826465,-7.713108643086974
10347,Ballynacraig,Gort an Choirce,70,55.104182550000004,-8.164183674635428
10348,Ballynaglack,Stranorlar,88,54.81611585,-7.79497574154844
10350,Ballynahone (ED Fahan),Fahan,48,55.102291550000004,-7.421269030728963
10351,Ballynakeeloge,Illies,13,55.161497,-7.377457560177026
10352,Ballynakillew Mountain,Ballintra,20,54.5963555,-7.998909715418199
10353,Ballynakilly (ED Inch Island)),Inch Island,32,55.067445899999996,-7.518270534099106
10354,Ballynakilly (ED Templedouglas),Templedouglas,36,54.957237250000006,-7.84368149548825
10355,Ballynally,Moville,965,55.2076882,-7.03746585508263
10356,Ballynalost,Fánaid Thuaidh,5,55.25741985,-7.650687079028719
10357,Ballynaman (ED Cloghan),An Clochán,18,54.8254458,-7.995865735953877
10358,Ballynaman (ED Gleneely),Gleneely,22,54.775987150000006,-7.704821011012491
10359,Ballynarry,Buncrana Rural,91,55.15747935,-7.4778450750548355
10360,Ballynascall,Mín an Lábáin,12,54.97102035,-7.949387823654221
10361,Ballynashannagh,Rosnakill,9,55.179722,-7.643333
10362,Ballynatone,An Clochán,34,54.821949849999996,-7.855445623498968
10363,Ballyness,Na Croisbhealaí,153,55.1520644,-7.7924644
10366,Ballyraine,Letterkenny Rural,960,54.9536413,-7.710742801962253
10367,Ballyrattan,Castlecary,106,55.185341449999996,-7.097514760296063
10368,Ballysaggart,Dunkineely,17,54.594001500000005,-8.39885604130534
10369,Ballyscanlan Lower,Loch Caol,13,55.05883785,-7.744242242603787
10370,Ballyscanlan Upper,Loch Caol,17,55.057628449999996,-7.755311432027959
10372,Balwoges,Corkermore,35,54.682790600000004,-8.359725476397447
10373,Banganboy,An Ghrafaidh,14,54.8231292,-8.169586068939394
10374,Bangort,Cill Ghabhlaigh,9,54.7312456,-8.68627451536635
10377,Barnes Lower,An Tearmann,33,55.073715,-7.825553033247854
10378,Barnes Upper,An Tearmann,15,55.07241485,-7.847745519431404
10381,Barrack,Gortnavern,49,54.9274569,-7.865386
10382,Barrack or Ballymagig,Killymasny,59,,
10383,Baskill,Gleneely,27,55.24412125,-7.188177763626034
10384,Bauville Keeloges and Clonglash,Buncrana Rural,176,55.1325202,-7.39930425891421
10385,Bavan,An Leargaidh Mhór,94,54.6320077,-8.5433542296941
10386,Bayhill,Rathmelton,9,55.0339008,-7.662120623104063
10387,Baylet,Inch Island,24,55.054722,-7.461667
10388,Beagh,Dawros,35,54.7920883,-8.429062579895676
10389,Beaghmore,Gleann Léithín,5,54.8475773,-8.175954843288274
10390,Beaugreen Glebe,Dunkineely,27,54.63206,-8.372908256085715
10391,Beefan,Cill Ghabhlaigh,28,54.71930545,-8.740786959930146
10393,Beefpark,Tantallon,6,54.64307505,-8.176588323718239
10395,Behy,Ballyshannon Rural,48,54.5190216,-8.123849513663593
10396,Belalt,Cloghard,33,54.543333,-7.889722
10397,Belalt North,Templecarn,17,54.5587893,-7.914409417803744
10398,Belalt South,Templecarn,9,54.54353925,-7.925908500404274
10399,Belcruit,Inis Mhic an Doirn,219,55.01235465,-8.386961576682147
10400,Bellaganny,Gleann Gheis,5,54.7653785,-8.465460539081324
10401,Bellanamore,Baile na Finne,50,54.869167,-8.055556
10402,Bellanascaddan,Edenacarnan,89,54.99112855,-7.751810877521754
10403,Bellina,Na Croisbhealaí,335,55.130819,-8.107514067593694
10405,Beltany,Raphoe,60,54.844560349999995,-7.613295000849121
10406,Beltany Lower,Dún Lúiche,92,55.1053012,-8.1346351
10407,Beltany Mountain,Dún Lúiche,39,55.042919,-8.127943852794292
10408,Beltany Upper,Dún Lúiche,53,55.0981549,-8.1349121
10411,Billary,Pettigoe,22,54.546146949999994,-7.8422817258574105
10413,Bindoo,Allt na Péiste,26,54.8225011,-7.958169348347654
10416,Binnion (ED St. Johnstown),St. Johnstown,10,54.9017342,-7.498930456449299
10417,Binnion (ED Straid),Straid,56,55.2785585,-7.427964625060872
10418,Binroe,Killybegs,66,54.63121475,-8.420827634238403
10419,Birchhill,Clogher,72,54.6760419,-8.037421215128587
10420,Bircog,Pettigoe,49,54.556571399999996,-7.834277883311173
10421,Birdstown,Clonleigh South,31,,
10423,Birra,Ballintra,10,54.569525299999995,-8.174169031134685
10426,Blackrepentance,Castlefinn,7,54.8385513,-7.665530594102645
10427,Blackrock,Clonleigh North,10,,
10428,Blacks Glen,Rathmelton,11,55.0509348,-7.661815862777777
10429,Blairstown,Killygordon,31,54.8049465,-7.6243647
10430,Blanket Nook (Raphoe North By),Castleforward,17,,
10433,Bogagh,Raphoe,14,54.665,-8.613889
10434,Bogagh Glebe,Cill Charthaigh,33,54.66108785,-8.612265462867686
10435,Bogay,Castlewray,59,54.994444,-7.431111
10436,Bogay Glebe,Castleforward,12,54.998900899999995,-7.446722084185814
10438,Bohanboy,Killygordon,11,54.81563415,-7.684032373113295
10439,Boheolan,Templedouglas,23,55.007635300000004,-7.862146989029846
10440,Bohirril,Gortnavern,61,55.00199665,-7.705339100180652
10441,Bohirril Park,Gortnavern,19,55.0096907,-7.709710342202463
10442,Bohullion Lower,Burt,87,55.0138035,-7.4778043
10443,Bohullion Upper,Burt,43,55.01400805,-7.4551802375329945
10444,Bomany,Ballymacool,181,55.1385216,-7.4137028
10445,Bonnyglen,Bonnyglen,11,54.663056,-8.257778
10446,Booragh,Rathmelton,23,55.00615445,-7.689918242740923
10448,Boyagh,Clonleigh North,28,54.8763932,-7.473112934434791
10449,Boyoughter,Leitir Mhic an Bhaird,100,54.8680633,-8.2936542
10451,Braade (ED Annagary),Anagaire,93,55.0408976,-8.34219213441062
10452,Braade (ED Clonleigh North),Clonleigh North,32,54.857193699999996,-7.487943389841847
10453,Braade Upper,Gleann Cholm Cille,15,54.7072759,-8.6648548910816
10454,Bracky,Gleann Gheis,47,54.751647399999996,-8.431221058372753
10455,Braehead,Figart,24,54.8732036,-7.620847707823531
10456,Bready,Killea,22,54.96079985,-7.483720685163016
10457,Breaghy (ED Ards),Ards,45,55.182661,-7.919143146680829
10458,Breaghy (ED Castlefinn),Castlefinn,14,54.819491400000004,-7.599196187098863
10459,Breaghy (ED Rathmelton),Rathmelton,29,55.0178348,-7.669374652021464
10460,Bredagh Glen,Moville,246,55.2166461,-7.064082748444296
10461,Bree,Ardmalin,79,55.347222,-7.306389
10462,Breen,Convoy,13,54.8794569,-7.758182475441469
10463,Breenagh,Suí Corr,42,54.931389,-7.907222
10464,Brenter,Inver,51,54.63923615,-8.335761742486683
10465,Bridge End or Drummonaghan,Rathmelton,169,55.036446,-7.6619579
10466,Brinlack,Mín an Chladaigh,343,55.116667,-8.283333
10467,Broadlea,Feddyglass,8,54.868493,-7.546614553927002
10468,Broadpath,Convoy,23,54.847802900000005,-7.689494075504522
10469,Brockagh (ED Cloghan),An Clochán,22,54.8526152,-7.935476543194854
10470,Brockagh (ED Crovehy),Cró Bheithe,9,54.945556,-8.243333
10471,Brockagh (ED Creenasmear),Críoch na Sméar,22,55.080219,-7.966612254830789
10472,Brockagh (ED Treantamucklagh),Treantaghmucklagh,41,,
10473,Brookfield,Donegal,162,,
10477,Bruckless,Dunkineely,116,54.637075,-8.3867158
10478,Bunawack,Cró Bheithe,17,54.99050805,-8.278206543043936
10479,Bunbeg,Machaire Chlochair,8,55.059722,-8.300278
10480,Buncronan,Tantallon,17,54.63106835,-8.276566859005452
10481,Buncroobog,Na Gleannta,35,54.79401515,-8.245189377420807
10482,Bungosteen,Killybegs,21,54.6747983,-8.417609522942845
10483,Bunnagee,Letterkenny Rural,234,54.9405296,-7.6981313
10484,Bunnamayne,Burt,410,55.030278,-7.388611
10485,Bunnaton,Cnoc Colbha,28,55.173056,-7.580833
10488,Burnside,Figart,25,,
10489,Burnthaw,St. Johnstown,18,54.912803100000005,-7.483020939120672
10490,Burtonport,Inis Mhic an Doirn,47,54.979977,-8.4208746
10491,Cabra Brook,Templedouglas,39,54.97751409999999,-7.861600540989118
10492,Cabra Glebe,Templedouglas,12,54.97023335,-7.869480384145634
10493,Cabry,Whitecastle,82,55.1368019,-7.2040712
10494,Calhame (ED Clonleigh South),Clonleigh South,27,,
10496,Calhame (ED Dunkineely),Dunkineely,84,54.6504692,-8.3775208
10497,Calhame (ED Dunlewy),Dún Lúiche,17,55.12376245,-8.116299030510262
10498,Calhame (ED Killygordon),Killygordon,48,54.81073405,-7.671971212622264
10499,Calhame (ED Urney West),Urney West,5,54.761354600000004,-7.57778654154893
10500,Calhame or Montgomery's fort,Convoy,20,,
10501,Callan,Lettermore,76,54.856667,-7.762222
10502,Callanacor,Lettermore,89,54.8585192,-7.739140739513375
10503,Camblestown,Castlewray,63,54.97785145,-7.669645511873869
10504,Camlin,Carrickboy,10,,
10505,Camp,Ballyshannon Rural,214,,
10507,Cappagh,Gleann Cholm Cille,46,,
10508,Cappry,Dooish,759,54.8,-7.8125
10509,Cappry (Graham),Dooish,26,54.791652850000006,-7.808874434288461
10511,Carlan Lower,An Cheathrú Chaol,12,55.1645148,-7.6551735
10512,Carlan Upper,An Cheathrú Chaol,97,55.15574445,-7.648500624255794
10513,Carmoney,Creamhghort,13,55.13750685,-7.72775825216794
10514,Carn (ED Gleneely),Gleneely,93,54.77585035,-7.7499864458763845
10515,Carn (ED Pettigoe),Pettigoe,31,54.574167,-7.840556
10517,Carn High (ED Rathmelton),Rathmelton,49,55.0584576,-7.6386387
10518,Carn Low,Rathmelton,23,54.7968284,-7.7325637
10521,Carnagarve,Moville,151,55.20963225,-7.026040564678251
10522,Carnaghan,Inch Island,27,55.0592829,-7.4934407
10523,Carnagore,Glen,27,55.1487875,-7.8030136
10524,Carnamogagh Lower,Letterkenny Rural,973,54.9775907,-7.7199477
10525,Carnamogagh Upper,Letterkenny Rural,1567,54.97381875,-7.731053191217256
10526,Carnamoyle,Kilderry,188,55.0776143,-7.31201
10527,Carnashannagh (ED Fahan),Fahan,67,55.065570300000005,-7.4137767899207745
10528,Carnatreantagh,Templedouglas,69,55.00484165,-7.833617085627431
10529,Carnbeagh North,Clogher,42,54.66718565,-8.040561431403296
10530,Carnbeagh South,Clogher,14,54.6638029,-8.040216708928572
10531,Carnboy,Anagaire,13,55.0585163,-8.339894051052982
10532,Carndoagh,Carndonagh,68,55.26656335,-7.3348297069745945
10533,Carngarrow,Cnoc Colbha,21,55.1602769,-7.5700905345646685
10536,Carnowen,Castlefinn,88,54.8317374,-7.624501423236493
10537,Carnshannagh (ED Feddyglass),Feddyglass,12,54.8893228,-7.551209064119471
10538,Carntressy,Templecarn,10,,
10539,Carntullagh,Killybegs,24,54.624444,-8.430278
10540,Carradoan,Rathmullan,13,55.127049799999995,-7.54699055742903
10544,Carran Upper and Lower,An Cheathrú Chaol,31,55.1852435,-7.6277176424468855
10545,Carranadore,Cloghard,32,54.78882125,-7.639802664441326
10547,Carrick Lower,Gleann Cholm Cille,147,54.66156215,-8.652589847357294
10548,Carrick Upper,Gleann Cholm Cille,181,54.6120586,-8.0943224
10549,Carrick (ED Cranford),Creamhghort,67,55.1659021,-7.746583887987757
10550,Carrick (ED Killygordon),Killygordon,49,54.807681349999996,-7.617716317960189
10551,Carrick (ED Meenaclady),Mín an Chladaigh,341,,
10552,Carrick (ED Templedouglas),Templedouglas,58,54.9980605,-7.864433393666231
10553,Carrick Upper and Lower Barr,Laghy,23,54.61411045,-8.000227179396862
10554,Carrick West,Laghy,36,54.610451499999996,-8.110720915010127
10555,Carrickabraghy,Ballyliffin,16,55.31102335,-7.36488587891291
10556,Carrickadawson,Feddyglass,35,,
10557,Carrickafodan (ED Gleneganon),Glennagannon,200,55.2634732,-7.238382878152869
10559,Carrickanee,Inch Island,60,55.0623582,-7.473158948875765
10560,Carrickart,Carraig Airt,274,55.1771751,-7.7941392
10562,Carrickatimpan,Mín an Lábáin,8,54.968365899999995,-8.059601977815007
10563,Carrickatlieve Glebe,Ard an Rátha,31,54.73474615,-8.322725174184642
10564,Carrickballydooey,Kincraigy,20,54.9397185,-7.612903724227847
10566,Carrickboy,Ballyshannon Urban,372,54.4957885,-8.19629785430606
10567,Carrickbrack (Raphoe North By),Convoy,27,,
10568,Carrickbrack (Raphoe South By),Convoy,45,,
10569,Carrickbreeny,Ballintra,15,54.58954805,-8.101548734743723
10570,Carrickfin,Anagaire,12,55.0534994,-8.33102367011492
10571,Carrickmagrath,Goland,232,54.7765986,-7.809754671577359
10573,Carrickmaquigley,Redcastle,210,55.1793908,-7.155176899568772
10574,Carrickmore,St. Johnstown,58,54.6329156,-7.9535132
10575,Carricknagore,Killybegs,83,54.649848,-8.412672
10576,Carricknahorna,Cavangarden,48,,
10577,Carricknamanna,Killygordon,109,54.8073088,-7.6976510992376115
10578,Carricknamart,Kincraigy,67,54.9179599,-7.613472583765967
10579,Carricknamoghil,Killybegs,65,54.6730338,-8.429813186505397
10580,Carricknashane,Killygordon,62,54.8059272,-7.639698302471433
10582,Carrickrory,Pettigoe,4,54.56046875,-7.869547088013073
10583,Carrickshandrum,Gleneely,42,54.796283,-7.721395569363433
10584,Carrickybressil,Millford,8,,
10586,Carrigans,Killea,165,54.9509259,-7.4294746
10587,Carroghill,Mintiaghs,40,55.2016368,-7.384273229589228
10588,Carrontlieve,Fahan,277,,
10589,Carrowbeg,Turmone,16,55.259763199999995,-7.052420835435633
10590,Carrowblagh (ED Glentogher),Glentogher,131,55.2034175,-7.2812216999999935
10591,Carrowblagh (ED Turmone),Turmone,12,55.245202199999994,-7.110336026607559
10592,Carrowblagh or Leckemy,Turmone,33,55.245202199999994,-7.110336026607559
10593,Carrowcanon,Na Croisbhealaí,147,55.14523455,-8.078173802407463
10594,Carrowcashel,Rathmelton,21,55.0123377,-7.619086229245399
10595,Carrowen,Burt,48,55.030556,-7.4975
10596,Carrowhugh,Greencastle,97,55.22837955,-6.966401284112148
10597,Carrowkeel (ED Carrowkeel),An Cheathrú Chaol,198,55.1373255,-7.6663937
10598,Carrowkeel (ED Whitecastle),Whitecastle,218,55.126730699999996,-7.198558167897889
10599,Carrowkeel Glebe,Grianfort,12,55.215282,-7.689991872498203
10600,Carrowmenagh,Turmone,51,55.2599766,-7.0695981
10601,Carrowmore (ED Gleneely),Gleneely,120,55.2471532,-7.2031103245318135
10602,Carrowmore (ED Malin),Malin,141,55.310061399999995,-7.2572400422168135
10603,Carrowmore or Glentogher,Glentogher,73,55.17851435,-7.2579669841421595
10604,Carrowmullin,Fahan,76,55.09230325,-7.4577459759393205
10605,Carrownaff,Castlecary,119,55.1852631,-7.059243870726345
10606,Carrownaganonagh,Loch Caol,29,55.0835989,-7.772226900308503
10607,Carrownamaddy (ED Burt),Burt,94,55.03736995,-7.423168856203392
10608,Carrownamaddy (ED Creenasmear),Críoch na Sméar,31,55.1318699,-7.970595727820115
10609,Carrownasaul,Loch Caol,22,55.067789,-7.779498009418605
10610,Carrowreagh (ED Burt),Burt,135,55.024915,-7.414412701740884
10611,Carrowreagh (ED Gleneganon),Glennagannon,192,55.22054375,-7.236504122154146
10612,Carrowreagh (ED Knockalla),Cnoc Colbha,14,55.15306355,-7.593032804159298
10613,Carrowreagh or Craignacally,Ballyliffin,68,,
10614,Carrowtrasna (ED Gartan),Gartán,25,55.020328500000005,-7.904984875793607
10615,Carrowtrasna (ED Greencastle),Greencastle,74,55.235287650000004,-6.959279684721404
10616,Carryblagh,Grianfort,27,55.223611,-7.623056
10617,Carrygally,Corravaddy,70,54.93167165,-7.720278195061505
10618,Carrygalt,Rathmelton,9,55.025609,-7.598121700069306
10619,Carthage,Carthage,181,,
10620,Casey Glebe,Dún Fionnachaidh,39,55.16705195,-7.965393361865577
10622,Cashel (ED Ballyshannon Rural),Ballyshannon Rural,67,54.536944,-8.201944
10623,Cashel (ED Doe Castle),Caisleán na dTuath,52,55.1350477,-7.864141830945714
10624,Cashel (ED Dunlewy),Dún Lúiche,73,55.11291325,-8.13134010039915
10625,Cashel (ED Gleneely),Gleneely,78,55.259313,-7.212301686724226
10626,Cashel (ED Glentogher),Glentogher,65,55.223333,-7.274444
10627,Cashel (ED Malinbeg),Málainn Bhig,116,54.6938561,-8.717959258557043
10628,Cashel (ED Mulmosog),Maol Mosóg,30,54.737222,-8.420556
10629,Cashel Glebe,Fánaid Thiar,18,55.23455105,-7.73995596089095
10630,Cashelard,Cliff,186,54.52054445,-8.082464025
10631,Cashelcarn,Cill Charthaigh,45,54.64222585,-8.585502107417465
10632,Cashelcummin,Killybegs,55,54.639431200000004,-8.449431353811569
10633,Casheleenan,Loch Caol,36,55.06713245,-7.7984852274223115
10634,Cashelenny,Grousehall,8,54.61336945,-7.7329672054464496
10635,Cashelfean,Dunkineely,29,54.63884175,-8.357951409658657
10636,Cashelgay,Edenacarnan,43,55.0040635,-7.75841930298021
10637,Cashelgolan,Maas,24,54.8407679,-8.4065876
10638,Cashelin,Cloghard,10,54.7781404,-7.625003114863049
10639,Cashellackan,Ballyshannon Rural,26,54.526111,-8.196667
10640,Cashelmore,Ards,87,55.2160727,-7.731683
10641,Cashelnagor,Dún Lúiche,73,55.0866642,-8.1274161
10644,Casheloogary,Inver,56,54.6836486,-8.302211326304445
10645,Cashelpreaghan,Grianfort,14,55.21294125,-7.658072837339779
10646,Cashelreagh,Templedouglas,29,54.94565335,-7.865009275226782
10647,Cashelreagh Glebe,Killybegs,42,54.652275450000005,-8.396695113019128
10648,Cashelshanaghan,Castlewray,189,,
10649,Casheltown (ED Corkemore),Corkermore,37,,
10653,Castlebane (ED Dunfanaghy),Dún Fionnachaidh,15,55.167802949999995,-8.003290005035977
10654,Castlebane (ED Stranorlar),Stranorlar,25,54.81364485,-7.744823274775218
10655,Castleblaugh,Newtown Cunningham,40,54.96455985,-7.553929084136213
10656,Castlecooly,Burt,55,55.0255727,-7.470586891677361
10657,Castledoe,Caisleán na dTuath,44,55.136001750000005,-7.870205658545988
10658,Castledowey,Treantaghmucklagh,95,54.922141,-7.5639806
10659,Castlefinn,Castlefinn,186,54.8033847,-7.5931697
10660,Castleforward Demesne,Castleforward,79,54.999803,-7.4926263
10661,Castlequarter (ED Fahan),Fahan,4,55.0762112,-7.4447441232725975
10662,Castlequarter (ED Inch Island),Inch Island,36,55.0547859,-7.4965209
10663,Castlethird,Killea,54,54.9516215,-7.478581778878596
10665,Castletown,St. Johnstown,34,,
10666,Castlewray,Castlewray,36,54.9802707,-7.6559873
10667,Castruse,Killea,19,54.99610965,-7.422555721278393
10669,Cavan (ED Clonleigh North),Clonleigh North,65,54.86273135,-7.503206263345401
10670,Cavan (ED Dunkineely),Dunkineely,14,54.61680645,-8.360227196510298
10671,Cavan Lower,Killygordon,77,54.8054303,-7.71892211818276
10672,Cavan Upper,Killygordon,57,54.82133745,-7.7048510888846025
10673,Cavanacaw,St. Johnstown,47,54.8932667,-7.486916924536965
10674,Cavanacor,Clonleigh North,5,54.84865245,-7.515162775189957
10675,Cavanaweery,Urney West,16,54.791194700000005,-7.580964808491372
10676,Cavangarden,Cavangarden,75,54.530556,-8.141111
10677,Cherrymount,Carrickboy,18,,
10678,Church Hill,Mín an Lábáin,77,,
10679,Churchland Quarters,Carndonagh,1919,,
10680,Churchtown (ED Clonleigh South),Clonleigh South,7,54.8088743,-7.5304082
10681,Churchtown (ED Gartan),Gartán,16,55.017237800000004,-7.923751062626756
10683,Claggan (ED Dunfanaghy),Dún Fionnachaidh,44,55.2030191,-7.9915304
10684,Claggan (ED Greenfort),Grianfort,13,55.20867505,-7.639419734249005
10685,Claggan (ED Millford),Millford,17,55.0965369,-7.669854244467744
10690,Claggan South,Mín an Lábáin,21,54.97991125,-7.933668697525045
10691,Clanboorhin,Donegal,30,54.6785771,-8.141482509069286
10692,Claragh,Ballyarr,9,55.3021986,-7.335171
10693,Clarcam,Clogher,65,54.66623165,-8.053605282456175
10694,Clarcarricknagun,Donegal,49,54.6580655,-8.07748841144798
10696,Clardrumnagahan,Clogher,12,54.67489845,-8.06587593696435
10697,Clare,Castlecary,140,,
10698,Clarlougheask,Clogher,33,54.6791377,-8.05149723127803
10699,Clashygowan,St. Johnstown,13,54.941241000000005,-7.485499666729199
10700,Cleenagh,Illies,70,55.150609349999996,-7.411190041299729
10701,Cleenderry,An Machaire,26,54.9252625,-8.416511785
10702,Cleengort,Na Gleannta,19,54.84814935,-8.287899555156546
10703,Clehagh,Straid,195,55.2700078,-7.4375101
10704,Cloghan,Cill Ghabhlaigh,5,54.8420105,-7.9360755
10705,Cloghan Beg,An Clochán,88,54.842537050000004,-7.9308859762070085
10706,Cloghan More,An Clochán,32,54.8341681,-7.921205154551366
10708,Cloghbolie (ED Ballyshannon Rural),Ballyshannon Rural,39,54.53236015,-8.2458777071875
10709,Cloghbolie (ED Maghery),An Machaire,16,54.8928481,-8.3042114
10710,Cloghboy,Gleann Gheis,50,54.775,-8.492778
10711,Cloghcor (Aran Island),Árainn Mhór,21,54.9766908,-8.4924033
10712,Clogher,Clogher,134,54.837222,-8.425556
10714,Clogher West,Maas,26,54.833699499999994,-8.424160369284145
10716,Clogheravaddy,Bonnyglen,15,54.711497949999995,-8.271529751582683
10718,Clogherdillure,Inis Mhic an Doirn,12,54.9909875,-8.418242006569766
10722,Cloghfin (ED Castlefinn),Castlefinn,48,54.794167,-7.551944
10723,Cloghfin (ED Clonleigh North),Clonleigh North,49,54.843889,-7.576111
10724,Cloghfin (ED Killea),Killea,89,54.9464502,-7.44206788699555
10726,Cloghglass,Inis Mhic an Doirn,45,55.0834152,-7.7404329
10727,Cloghgore,Convoy,9,54.87516915,-7.68728401328036
10728,Cloghore,Carrickboy,67,54.483333,-8.1
10729,Cloghroe (ED Edenacarnan),Edenacarnan,18,55.0099359,-7.782736316968076
10730,Cloghroe (ED Lettermore),Lettermore,102,54.851389,-7.777778
10731,Clonbara,Na Croisbhealaí,60,,
10732,Clonbeg Glebe,An Craoslach,20,55.1365135,-7.909222984487501
10733,Clonca,Culdaff,65,55.27072605,-7.180657636730585
10734,Cloncarney,Templedouglas,61,55.0128194,-7.847974423373622
10735,Clonclayagh,An Clochán,34,54.834657199999995,-7.94325899727715
10736,Clonconwal,Ard an Rátha,17,54.77893185,-8.370036134388915
10737,Clondallan,Rathmullan,30,55.1297215,-7.53669563907394
10740,Clonkilly More,Kilmacrenan,43,55.035363000000004,-7.804245207183207
10741,Clonmany Glebe,Straid,75,55.2377051,-7.424356480174564
10742,Clonmass,Ards,35,55.16842095,-7.896831204788986
10743,Clonmore,Ards,23,,
10744,Clontallagh,Ros Goill,31,55.212024850000006,-7.820088930347271
10745,Clontyseer,Carrickboy,25,54.4769788,-8.159172066182082
10746,Cloon,Castleforward,19,54.9707813,-7.4460201
10747,Cloonarrell,Gleneely,15,54.777369300000004,-7.659982432246243
10748,Clooney (ED Maas),Maas,35,54.839167,-8.409444
10749,Clooney (ED Rathmelton),Rathmelton,74,55.054722,-7.638056
10750,Clooney and Gortnamona,Fánaid Thiar,7,55.20269355,-7.731971026843761
10752,Cloontagh,Ballyliffin,404,55.2472152,-7.3675977
10755,Coguish,Cró Chaorach,17,54.67814815,-8.57090641788815
10756,Colehill,Castleforward,320,55.00164275,-7.507486416289449
10757,Commeen (ED Cloghan),An Clochán,55,54.819167,-7.975278
10758,Commeen (ED Doocharry),An Dúchoraidh,14,54.948333,-8.128333
10759,Common (ED Figart),Figart,69,54.88868645,-7.610713516979103
10760,Common (ED Glengesh),Gleann Gheis,35,54.7431775,-8.429478943139433
10764,Coneyburrow,Clonleigh South,239,54.8261361,-7.489155375212416
10765,Connaghkinnagoe,Illies,43,55.166292,-7.364707451544849
10766,Contycro,Málainn Bhig,14,54.70100585,-8.69929221368379
10767,Convoy Demesne,Convoy,34,54.8615858,-7.693493208542074
10768,Convoy Townparks,Convoy,652,54.86241305,-7.669696036146917
10769,Conwal,Ballymacool,86,54.9406474,-7.780968
10770,Cool Beg,Ballyshannon Rural,19,,
10772,Cool More,Ballyshannon Rural,24,54.54157325,-8.212552805411438
10773,Cool Upper,Creamhghort,49,55.12223365,-7.725111998177885
10774,Cooladawson,Killygordon,21,54.8120192,-7.723658787428297
10775,Cooladerry (ED Fanad North),Fánaid Thuaidh,29,55.25875565,-7.676945184633742
10776,Cooladerry (ED Raphoe),Raphoe,29,54.861623800000004,-7.602083803196095
10778,Coolaghy,Feddyglass,11,54.8648318,-7.5714815
10780,Coolatee,Clonleigh North,71,54.85086939999999,-7.475639291033341
10781,Coolback,Grianfort,6,55.229609499999995,-7.691774780940619
10782,Coolboy Big,Gortnavern,144,55.0045683,-7.742885863431116
10783,Coolboy Little,Gortnavern,20,54.9959866,-7.7382309
10784,Coolcholly,Ballyshannon Rural/Ballyshannon Urban,336,54.50829115,-8.191851888819563
10785,Coolshangan,Inver,64,54.6537305,-8.296447502066423
10786,Coolvoy,Gleann Léithín,18,54.9006342,-8.193392401305493
10787,Cooly,Castlecary,67,55.204588099999995,-7.097982534544198
10788,Coolyslin,Urney West,74,54.7873779,-7.5896273
10789,Copany,Tullynaught,50,54.647588049999996,-8.033252281029597
10790,Cor,Leitir Mhic an Bhaird,18,,
10791,Corcam,Killygordon,6,54.806389,-7.7225
10792,Corcashy,Convoy,13,54.83597075,-7.711596080054095
10793,Corcreggan,Dún Fionnachaidh,27,55.166139799999996,-7.995237589384492
10794,Corcullion,Castlefinn,22,54.80661635,-7.580047347373602
10795,Corderry,Mín an Lábáin,26,54.975,-7.937778
10797,Corgary,Knock,170,54.77358255,-7.790175950868658
10800,Corker More,Corkermore,28,54.70568085,-8.357855210632184
10801,Corkey,Kincraigy,94,54.932488899999996,-7.637188380557061
10802,Corlacky,An Clochán,46,54.82814525,-7.8896795824818975
10803,Corlea (ED Cliff),Cliff,40,54.49576815,-8.095314950953291
10806,Cormakilly,Urney West,8,54.779167,-7.588611
10807,Cormullin,Laghy,29,54.62263245,-8.029590490293543
10808,Cornabrogue,Gleneely,13,54.753333,-7.688611
10810,Cornagill,Castlewray,108,54.9669007,-7.6717608
10811,Cornagillagh,Convoy,15,54.885519599999995,-7.67290521511841
10813,Cornagullion,Mín an Lábáin,14,54.959684499999995,-7.949133382462962
10815,Corncamble,Castleforward,5,54.975625699999995,-7.467296784587573
10816,Corporation,Killybegs,585,54.6474467,-8.432625006453488
10817,Corracramph,Tawnawully,11,54.71646645,-8.026986380922397
10818,Corradooey (ED Convoy),Convoy,20,54.829929750000005,-7.6906066082913505
10819,Corradooey (ED Gleneely),Gleneely,29,54.74032149999999,-7.693033663497204
10820,Corraffrin,Knock,70,54.770833,-7.771111
10821,Corraine,Allt na Péiste,67,54.791412750000006,-7.8749902883926
10822,Corranagh,Magheraboy,191,54.9238749,-7.7097863
10823,Corraness Glebe,Ard an Rátha,7,,
10825,Corry,Grianfort,21,55.2185994,-7.64928954397131
10826,Corveen (ED Clogher),Clogher,43,54.68444745,-8.041057685389456
10827,Corveen (ED Meenaclady),Mín an Chladaigh,6,,
10829,Cottian,Kilmacrenan,17,55.0195841,-7.8015531
10830,Cottown,Raphoe,8,54.838300399999994,-7.596637079681839
10831,Court,Loch Caol,30,,
10833,Coxtown,Ballintra,23,54.5988133,-8.1080425
10834,Craghy (ED Dunglow),An Clochán Liath,21,54.94667925,-8.31032801657868
10836,Craig (ED Creeslough),An Craoslach,15,55.100528249999996,-7.923366288352986
10837,Craig (ED Kilderry),Kilderry,237,55.05703165,-7.286825048181248
10839,Craigmaddyroe Far,Rathmullan,40,55.08883185,-7.5889230278358655
10842,Craigs (ED Figart),Figart,8,54.883454799999996,-7.596289189762703
10843,Craigtown (ED Cross Roads),Na Croisbhealaí,23,55.120361149999994,-8.101291660170045
10844,Craigtown (ED Fahan),Fahan,23,55.086871200000004,-7.44039996948777
10845,Cranford,Creamhghort,138,55.143889,-7.696389
10846,Crannogeboy,Gleann Gheis,47,54.770833,-8.469167
10847,Cranny Lower,Bonnyglen,106,54.6535636,-8.270243940988067
10849,Cratlagh,Millford,67,55.101515,-7.731783691087999
10850,Creaghadoos,Feddyglass,113,54.886668,-7.4934832
10851,Creatland,St. Johnstown,44,54.8995965,-7.48560000859562
10852,Creehennan,Whitecastle,51,55.1420915,-7.1876536
10854,Creenasmear,Críoch na Sméar,14,55.112237750000006,-7.962362933607052
10856,Creeslough,An Craoslach,300,55.1222693,-7.9084618
10857,Creevagh,Glen,24,55.138889,-7.852222
10858,Creeve,Castleforward,31,54.938954,-7.7516569
10859,Creeve (Smith),Ballymacool,576,54.93784305,-7.749667896193777
10860,Creeve Glebe,Ballymacool,89,54.93562935,-7.762083534239975
10861,Creeveoughter,Cnoc Colbha,38,55.13973405,-7.599537950443267
10862,Creevins,Tantallon,36,54.61929755,-8.283550967248065
10863,Creevy,Ballyshannon Rural,157,54.5311329,-8.2472469
10864,Creggan (ED Figart),Figart,19,54.880104849999995,-7.643630084501057
10865,Creggan (ED Stranorlar),Stranorlar,126,54.8156221,-7.8046635
10866,Crevary Lower,Rathmullan,20,55.08992925,-7.572829579247481
10867,Crevary Upper,Rathmullan,35,55.09567465000001,-7.566947018750003
10869,Crislaghkeel,Fahan,39,55.0812406,-7.4223569
10870,Crislaghmore,Fahan,108,55.07718275,-7.413106583011961
10871,Croagh (ED Corkemore),Corkermore,34,,
10874,Croaghan (ED Clonleigh South),Clonleigh South,8,54.8266211,-7.542979304037611
10875,Croaghan (ED Rathmelton),Rathmelton,62,55.02994285,-7.591842400505748
10876,Croaghan (ED Rosnakill),Rosnakill,19,55.2127342,-7.6985979013920645
10878,Croaghbeg,An Leargaidh Mhór,22,54.6246809,-8.5619947
10881,Croaghlin (ED Glencolumbkille),Gleann Cholm Cille,18,54.6242988,-8.667498293888242
10882,Croaghlin (ED Killybegs),Killybegs,58,54.650176349999995,-8.441621524990005
10886,Croaghnashallog,An Clochán Liath,120,54.9339391,-8.3493022
10888,Croaghross,Grianfort,33,55.210745700000004,-7.623440834133614
10895,Crockglass,Whitecastle,31,55.1407843,-7.9613803
10898,Crocknagapple,Maol Mosóg,6,54.733333,-8.335278
10899,Crocknageeragh,An Clochán Liath,102,55.2324798,-7.6409082
10900,Crocknamurleog,Ros Goill,99,55.19989015,-7.8423146354689575
10901,Crockraw,Mín an Lábáin,15,54.978506499999995,-7.918234158649481
10902,Crohy,An Machaire,70,54.911944,-8.441944
10903,Crohyboyle,An Clochán Liath,31,54.9772946,-8.3099617
10905,Crolly,Machaire Chlochair,119,55.01446345,-8.243992919097469
10908,Cronaguiggy,Machaire Chlochair,35,,
10910,Cronalaghy,Gleneely,34,54.7378217,-7.733753
10913,Cronkeeran,Maol Mosóg,42,54.747222,-8.376667
10914,Cross (ED Killea),Killea,24,54.955278,-7.486944
10915,Cross (ED Whitecastle),Whitecastle,28,55.1548002,-7.230114396660308
10916,Crossconnell,Dunaff,51,55.2746517,-7.443347734604659
10917,Crossogs,Killymasny,19,54.929669000000004,-7.8929590285856595
10919,Crovehy,Cró Bheithe,57,54.963539,-8.290805682452167
10920,Crowanrudda,Cró Chaorach,8,54.6745023,-8.537117643020947
10924,Croweighter,Cró Chaorach,19,54.701727149999996,-8.580176311617507
10925,Crowkeeragh,Cró Chaorach,8,54.669722,-8.567778
10926,Crowlar,Cró Chaorach,18,54.7033438,-8.54849037696145
10927,Crownasillagh,An Leargaidh Mhór,8,54.652553600000005,-8.536307096622952
10928,Cruickaghmore,Inis Mhic an Doirn,66,54.978443150000004,-8.396011432654989
10929,Cruit Lower,Inis Mhic an Doirn,10,55.03915025,-8.421320534463524
10930,Cruit Upper,Inis Mhic an Doirn,50,55.02224185,-8.414757791504865
10931,Crumlin (ED Glengesh),Gleann Gheis,39,54.760556,-8.455556
10933,Cuilly,Tullynaught,21,54.6406722,-8.046979290195331
10934,Culdaff,Culdaff,85,55.2869665,-7.166544
10935,Culdaff Glebe,Culdaff,13,55.28699415,-7.134123527519597
10936,Culineen,Redcastle,90,55.16514545,-7.1484494506164395
10938,Cullion (ED Corravaddy),Corravaddy,80,54.9354379,-7.712438907415928
10940,Cullion (ED Lettermacaward),Leitir Mhic an Bhaird,19,54.844279,-8.334483743855785
10942,Cullionboy,Clogher,53,54.685793450000006,-7.968318552308146
10943,Culoort,Ardmalin,62,55.349444,-7.345
10945,Cunlin,Killybegs,21,54.660128099999994,-8.44508142896719
10946,Curragh,Corravaddy,22,,
10947,Curraghafeaghan,Tieveskeelta,15,54.672140150000004,-8.397998579313423
10948,Curraghalane,Clonleigh South,251,54.82397975,-7.499355372072802
10950,Curraghlea,Gortnavern,66,54.9792116,-7.6899368
10951,Curraghomongan,Stranorlar,198,54.8172721,-7.8421753
10952,Currin,An Tearmann,84,55.05083925,-7.827737196883788
10953,Currynanerriagh,Gleann Léithín,30,54.8578775,-8.165201026369369
10954,Cuskry Glebe,Cill Charthaigh,12,,
10955,Cuttymanhill,St. Johnstown,13,54.902219099999996,-7.461398668454804
10958,Dargan,Grianfort,8,55.20820035,-7.662792521483358
10959,Darney,Dunkineely,77,54.6382265,-8.376258759958663
10961,Deenystown,Castlewray,40,54.9812335,-7.668587575698815
10962,Deer Park West,Castleforward,12,55.003788650000004,-7.481409421775507
10964,Demesne,Cloghard,43,54.7956944,-7.59906798831023
10968,Dernacally,Killea,11,54.9486116,-7.461522
10969,Derries (ED Cavangarden),Cavangarden,58,54.564928800000004,-8.061057881477225
10970,Derries (ED Glenties),Na Gleannta,76,54.7766406,-8.29114909643826
10971,Derriscligh,An Tearmann,35,55.0900258,-7.84651474681461
10972,Derrora,Templedouglas,74,54.961749999999995,-7.904109159521408
10973,Derryart,Ards,26,55.14783885,-7.93218925561464
10975,Derrybeg (ED Magheraclogher),Machaire Chlochair,118,55.0782111,-8.2891221
10976,Derrycassan,Ros Goill,45,55.20696875,-7.85359060997334
10977,Derryconor,Gort an Choirce,161,55.1175803,-8.199844848324314
10978,Derrydruel Lower,An Machaire,5,54.909057250000004,-8.366598700666977
10979,Derrydruel Upper,An Machaire,33,54.9109702,-8.344310247380488
10980,Derryfad,Caisleán na dTuath,6,55.0962955,-7.8742643070858085
10981,Derryharriff Glebe,An Craoslach,38,55.13472795,-7.932662651505554
10982,Derryhirk,Bonnyglen,6,54.668181000000004,-8.252741349668657
10983,Derrykillew,Cliff,28,54.49721195,-8.056711554231052
10985,Derrylahan (ED Kilcar),Cill Charthaigh,98,54.640278,-8.628889
10986,Derryleconnell Far,Leitir Mhic an Bhaird,24,54.90889525,-8.245436567850508
10987,Derryleconnell Near,Leitir Mhic an Bhaird,27,54.9022607,-8.263747674686112
10990,Derrynacarrow,An Dúchoraidh,58,54.913497750000005,-8.226299205432191
10992,Derrynagrial,An Dúchoraidh,6,54.9235597,-8.212040935064543
10993,Derrynamansher,Anagaire,35,55.0365257,-8.281369687740575
10994,Derrynanaspol,An Dúchoraidh,10,54.94207685,-8.198618811615415
10995,Derryness,Dawros,23,54.786667,-8.443056
10996,Derryreel,Na Croisbhealaí,137,55.13932955,-8.008939029918075
10997,Derryvane,Kilderry,98,55.05526535,-7.31824404293563
10999,Devlin or Barr of Ballyconnell,Na Croisbhealaí,10,,
11000,Devlinmore,Creamhghort,50,55.1610708,-7.711096629629029
11001,Devlinreagh,Creamhghort,81,55.16748705,-7.733532247651144
11004,Doagh,Ros Goill,19,55.22205615,-7.850185575849408
11005,Doagh Beg,Fánaid Thuaidh,55,55.250833,-7.624444
11006,Doagh More,Fánaid Thiar,31,55.22205945,-7.765868090014369
11007,Doaghcrabbin,Fánaid Thuaidh,12,55.23019205,-7.610457620863547
11008,Donaghmore Glebe,Castlefinn,16,54.80825725,-7.609204557906377
11009,Donegal,Donegal,473,54.92075415,-7.95238521465131
11010,Dooballagh,Magheraboy,84,54.9076222,-7.7047117
11011,Doobally,Ballyshannon Rural,11,54.50501415,-8.120950950250311
11014,Doocashel Glebe,Ards,44,55.14811075,-7.907709341992495
11015,Doochill North,Ard an Rátha,51,54.768641099999996,-8.387470705721658
11017,Dooey (ED Kilgoly),Cill Ghabhlaigh,14,54.704919849999996,-8.741109840113154
11018,Dooey (ED Lettermacaward),Leitir Mhic an Bhaird,68,54.8690959,-8.3702097
11019,Dooghan,Castlefinn,14,54.825453,-7.604161
11020,Dooish (ED Dooish),Dooish,234,54.7969547,-7.849494864461568
11021,Dooish (ED Treantamucklagh),Treantaghmucklagh,51,,
11022,Doon,An Tearmann,39,,
11023,Doon Glebe,Ballymacool,186,54.9416927,-7.8293296
11024,Doonalt,Cill Ghabhlaigh,27,54.706389,-8.7525
11025,Doonan,Donegal,123,54.65819535,-8.12700977710993
11026,Doorabble,Kincraigy,19,54.9246328,-7.578375598188263
11028,Dooros,Clonleigh South,12,54.823296,-7.546129300314034
11029,Dore,Machaire Chlochair,272,,
11031,Downies,Ros Goill,87,55.195641249999994,-7.856235720927289
11033,Drean,Manorcunningham,11,54.968836749999994,-7.606489321321991
11034,Dreenan,Knock,143,55.168094,-7.4503119
11035,Dresnagh,Urney West,11,54.7835637,-7.58437429969578
11036,Dristernan,Gleneely,255,55.240592899999996,-7.142761479838704
11037,Dromore (ED Ballintra),Ballintra,18,54.571389,-8.155
11038,Dromore (ED Clonleigh North),Clonleigh North,13,54.8632271,-7.501448
11039,Dromore (ED Donegal),Donegal,114,54.8632271,-7.501448
11040,Dromore (ED Gleneely),Gleneely,241,54.7878159,-7.689093695482673
11041,Dromore (ED Magheraboy),Magheraboy,195,54.9438581,-7.6722646
11042,Dromore (ED Tantallon),Tantallon,50,54.637589649999995,-8.224020339400504
11043,Dromore (ED Templedouglas),Templedouglas,38,55.01370475,-7.816158434161703
11044,Dromore Big,Feddyglass,15,54.88954595,-7.562536362606936
11045,Dromore Little,Feddyglass,37,,
11046,Drum (ED Greenfort),Grianfort,24,55.205210300000005,-7.632251909259258
11047,Drum (ED Kilgoly),Cill Ghabhlaigh,13,54.718766849999994,-8.705651482988543
11048,Drumabodan,Kilmacrenan,37,55.042778,-7.738333
11049,Drumacloghan,Glenalla,60,55.076111,-7.638889
11050,Drumacrin,Bundoran Rural/Bundoran Urban,497,54.479390050000006,-8.27267691074939
11051,Drumadart,Inver,12,54.65295125,-8.313840686981797
11052,Drumadoney,Tullynaught,10,54.65970505,-8.033961414190394
11053,Drumadooey,Birdstown,104,55.0591555,-7.3609534255363815
11054,Drumaghy (ED Glengesh),Gleann Gheis,91,54.75999525,-8.425299228225523
11055,Drumaghy (ED Tieveskeelta),Tieveskeelta,26,54.66438985,-8.399143548076317
11056,Drumagraa,An Bhinn Bhán,11,54.697950649999996,-8.217859595091202
11057,Drumalough or Lough Hill,Gleann Gheis,10,,
11058,Drumanaught,Killymasny,96,54.9197286,-7.8273177
11059,Drumaneany,Gleann Léithín,16,54.8897436,-8.178169948747112
11060,Drumaneary,Tantallon,13,54.62463415,-8.233433168019081
11061,Drumaneel,Ballintra,33,54.593171850000004,-8.112489641793696
11062,Drumanoo,Killybegs,40,54.611389,-8.4675
11064,Drumany (ED Magheraboy),Magheraboy,181,54.93598025,-7.687367380235854
11065,Drumard,Eanymore,66,55.0830029,-7.7528132
11066,Drumardagh,Magheraboy,161,54.955276,-7.651538536549861
11067,Drumark,Donegal,115,54.655659400000005,-8.142118468980502
11068,Drumatoland,Treantaghmucklagh,66,54.91727125,-7.552733699562635
11069,Drumatrumman,An Cheathrú Chaol,17,55.12733535,-7.634926033361649
11070,Drumatumpher,Bonnyglen,68,54.6637391,-8.24890558143483
11071,Drumaville (ED Culdaff),Culdaff,175,55.278333,-7.236944
11072,Drumaville (ED Turmone),Turmone,10,55.2675,-7.081667
11073,Drumavish,Gleneely,21,54.7834598,-7.735005264512244
11074,Drumavohy (ED Malin),Malin,18,,
11076,Drumawark,Pettigoe,18,54.57991455,-7.813425860084561
11077,Drumaweer,Moville,430,55.213964700000005,-7.010556005202005
11079,Drumbane,Urney West,39,55.0938823,-7.2505955
11080,Drumbar,Donegal,36,54.643889,-8.063611
11081,Drumbaran (ED Ardara),Ard an Rátha,123,54.7604631,-8.414202049929477
11082,Drumbaran (ED Eanymore),Eanymore,68,54.675330599999995,-8.221841625581693
11083,Drumbarity,Killybegs,11,54.6464373,-8.445559180772314
11084,Drumbarnet,Killea,21,54.9801298,-7.561617
11085,Drumbarnet Lower,Newtown Cunningham,7,54.9804197,-7.561356860336618
11086,Drumbarnet Middle,Newtown Cunningham,20,54.97186605,-7.571878827129119
11087,Drumbarnet Upper,Newtown Cunningham,48,54.963611,-7.576111
11089,Drumbeagh (ED Killybegs),Killybegs,82,54.642341650000006,-8.444212903530254
11090,Drumbeagh (ED Tantallon),Tantallon,60,54.6558036,-8.234705041368873
11091,Drumbeg (ED Feddyglass),Feddyglass,13,54.8822592,-7.5458434
11092,Drumbern,Millford,225,55.09666285,-7.691346374314781
11093,Drumboarty,Eanymore,20,54.704159250000004,-8.160495325574376
11094,Drumboe Lower,Stranorlar,437,54.80621945,-7.787162553038545
11095,Drumboe Upper,Stranorlar,22,54.81535005,-7.783329546732625
11096,Drumboghill,Dawros,12,54.8250257,-8.483209021135405
11097,Drumbologe,Templedouglas,12,54.965833,-7.871111
11098,Drumboy (ED Clonleigh South),Clonleigh South,426,54.8412541,-7.491827827806925
11099,Drumboy (ED Newtown Cunningham),Newtown Cunningham,7,55.015556,-7.5375
11100,Drumbrick,Kilmacrenan,38,55.04026615,-7.8102539917534735
11101,Drumbristan Glebe,Ballintra,14,54.60109505,-8.140723720578269
11102,Drumcannon,Gleneely,33,54.7758394,-7.670937278090468
11103,Drumcarbit,Malin,248,55.303988,-7.249196235367108
11104,Drumcarn,Kincraigy,47,54.92954855,-7.606924637814253
11105,Drumcavany,Templedouglas,75,54.98634595,-7.8535613664735315
11106,Drumchory Glebe,Ballintra,7,54.5964071,-8.139989550185183
11108,Drumcliff,Donegal,74,54.65438815,-8.118863148006277
11109,Drumcoe,Tantallon,64,,
11111,Drumconor,Tantallon,74,54.644444,-8.255556
11112,Drumcroagh,Tullynaught,11,54.64883965,-8.059229065467969
11113,Drumcrow,Feddyglass,17,54.881578000000005,-7.520287542490358
11114,Drumderrydonan,Allt na Péiste,29,54.810146849999995,-8.008456305044838
11115,Drumdeevin,An Tearmann,31,55.051814300000004,-7.843223858240829
11116,Drumdoit,Urney West,87,54.7731159,-7.5728346
11117,Drumduff,Bonnyglen,36,54.65531205,-8.257695657691482
11118,Drumdutton,Glen,6,55.13423365,-7.832072083301758
11119,Drumearn,St. Johnstown,23,54.89467005,-7.47285497331589
11121,Drumenan (ED Killymasny),Killymasny,84,54.920055000000005,-7.878885702860693
11122,Drumenan (ED St. Johnstown),St. Johnstown,60,54.9159711,-7.473865983282474
11124,Drumfad (ED Feddyglass),Feddyglass,16,54.87677015,-7.553866769779104
11127,Drumfergus,Gleneely,68,54.779722,-7.6725
11128,Drumfin (ED Inver),Inver,17,54.66016145,-8.305019781146733
11129,Drumgorman (ED Tantallon),Tantallon,42,54.6332664,-8.2609569
11130,Drumgorman Barr,Tantallon,19,54.642782,-8.234837162021952
11131,Drumgornan,Donegal,32,54.6733755,-8.119245730305568
11132,Drumgowan,Donegal,53,55.039722,-7.485833
11133,Drumgreggan,Magheraboy,38,54.9485107,-7.674245114869022
11134,Drumgumberland,Convoy,47,54.854444,-7.685833
11137,Drumhaggart,Birdstown,134,55.06542835,-7.338692915008652
11138,Drumhallagh Lower,Killygarvan,20,55.1374752,-7.5614077
11139,Drumhallagh Upper,Killygarvan,31,55.134749049999996,-7.568432863890713
11140,Drumharriff,Pettigoe,45,54.54283025,-7.8382835928140615
11141,Drumherrive,Glenalla,60,55.06908595,-7.6094327750796795
11142,Drumhome,Ballintra,15,54.5788297,-8.174908023742997
11143,Druminardagh,Tullynaught,24,54.64407935,-8.027469985453074
11145,Druminderry Upper and Lower,Illies,19,55.144531,-7.3961968918242444
11146,Drumineney,Raphoe,10,54.854401300000006,-7.617905561084275
11148,Druminnin,Clogher,136,54.6829973,-8.018731629700422
11149,Drumirrin,Gleann Gheis,13,54.7851034,-8.529142527954164
11150,Drumkeeghan,Donegal,12,54.6617678,-8.156921322708895
11151,Drumkeelan,Tantallon,35,54.665515850000006,-8.207023887026093
11152,Drumkeen,Convoy,282,54.8669884,-7.7525927
11153,Drumlackagh,Glen,19,55.1347576,-7.8454579
11154,Drumlaghdrid,An Machaire,74,54.8975372,-8.3279865
11155,Drumlaght,Donegal,24,54.663945600000005,-8.089085094634811
11156,Drumlaghtafin,Inver,24,54.6775538,-8.2806648
11157,Drumlask,Tullynaught,33,54.63884955,-8.066565499180314
11158,Drumleavalliagh,An Craoslach,7,55.08196575,-7.907893742036858
11159,Drumlee,Gleneely,27,55.23871775,-7.122612127696499
11160,Drumleene,Clonleigh North,91,54.87564075,-7.498024605129968
11161,Drumlonagher,Donegal,121,54.6610359,-8.0868037
11163,Drumlougher,Castleforward,25,54.973387,-7.491290099980754
11164,Drumlurgagh,An Tearmann,25,55.040294700000004,-7.8223474806437245
11166,Drummacacullen,Bonnyglen,18,54.67060305,-8.270746892280354
11167,Drummacaladdery,Creamhghort,11,,
11168,Drummacanoo,Templedouglas,108,,
11169,Drumman,Ballyarr,6,55.0404757,-7.706523525429133
11170,Drummanus Glebe,Ballintra,11,54.60468535,-8.11974963246628
11171,Drummay,Castleforward,20,54.984502500000005,-7.494986566145711
11173,Drummeenanagh (ED Lough Eask),Loch Iascaigh,24,,
11174,Drummenny Lower,Tullynaught,46,54.6507543,-8.082007896960786
11175,Drummenny Middle,Tullynaught,9,54.6525091,-8.064544915839349
11176,Drummenny Upper,Tullynaught,10,,
11177,Drummucklagh,Feddyglass,40,,
11178,Drummurphy,Cloghard,9,54.785556,-7.630833
11180,Drumnacarry (ED Bonnyglen),Bonnyglen,12,54.6780296,-8.25891503470694
11181,Drumnacarry (ED Creeslough),An Craoslach,18,55.08689115,-7.89876231062072
11182,Drumnacarry (ED Lough Eask),Loch Iascaigh,10,54.682366,-8.056872146591182
11184,Drumnacart Mountain Pasture,Anagaire,40,55.00825675,-8.34837661293554
11185,Drumnacraig,Fánaid Thuaidh,11,55.23633075,-7.620495931039823
11186,Drumnacroil,Ballintra,23,54.58933705,-8.13309014724372
11187,Drumnacross (ED Lettermore),Lettermore,12,54.8599659,-7.7609347
11188,Drumnacross (ED Ardara),Ard an Rátha,35,54.76857385,-8.324651602808032
11189,Drumnafinnagle,An Leargaidh Mhór,46,54.63482605,-8.573347980223787
11190,Drumnagahan,Clogher,12,54.6738258,-8.053942894606566
11191,Drumnagroagh,Carrickboy,18,54.486313749999994,-8.17014968617681
11192,Drumnaha (ED Clonleigh South),Clonleigh South,20,54.84143605,-7.535820824730559
11193,Drumnaha (ED Glenleheen),Gleann Léithín,7,54.890556,-8.146667
11194,Drumnaha (ED Urney West),Urney West,13,54.7793282,-7.555036574046383
11195,Drumnaheark East,Eanymore,17,54.6840541,-8.186069727866823
11196,Drumnaheark West,Eanymore,7,54.68482625,-8.200631799232125
11197,Drumnahoagh,Letterkenny Rural,167,54.94506915,-7.707699147800771
11198,Drumnahough,Mín Charraigeach,12,54.931567,-7.900579288813813
11199,Drumnahoul,Tullynaught,9,54.6544679,-8.047569453210865
11201,Drumnakilly,Inver,46,54.647778,-8.304167
11204,Drumnalost,Eanymore,16,54.67501565,-8.192837938085646
11206,Drumnaraw,An Craoslach,46,55.09475655,-7.897884003037383
11210,Drumnasillagh,Na Gleannta,336,54.7942856,-8.268421855298508
11213,Drumnaskea (ED Castlewray),Castlewray,62,54.9933566,-7.6706813
11215,Drumnatinny,Na Croisbhealaí,52,55.15339485,-8.102402898810446
11218,Drumoghill (ED Kincraigy),Kincraigy,89,54.936944,-7.593611
11219,Drumoghill (ED Termon),An Tearmann,23,55.04676895,-7.852881840107525
11222,Drumrat,Donegal,41,54.6536263,-8.089695007092903
11223,Drumreagh,Cill Charthaigh,20,54.640373249999996,-8.60147016802891
11224,Drumroe,Cill Ghabhlaigh,44,54.710435700000005,-8.707690748736368
11225,Drumrone,Eanymore,46,54.6908564,-8.197290730093167
11226,Drumroosk,Donegal,10,54.666958699999995,-8.114261755479252
11228,Drumroosk Middle,Donegal,324,54.6631181,-8.103990729261364
11229,Drumroosk West,Donegal,497,54.66084955,-8.110294581979455
11230,Drumsallagh,Mín an Lábáin,11,54.966899,-7.958775495125977
11232,Drumskellan,Three Trees,134,55.0941438,-7.2377279
11233,Drumstevlin,Donegal,39,54.66274035,-8.145635422795824
11235,Drung (ED Redcastle),Redcastle,264,55.16811975,-7.188536738687757
11236,Dunaff,Dunaff,139,55.27389,-7.503062811893605
11237,Dunagard,Ardmalin,29,55.34964685,-7.275039639455745
11238,Dundee,St. Johnstown,250,,
11239,Dundooan Lower,Ros Goill,51,55.22862465,-7.80366993995843
11240,Dundooan Upper,Ros Goill,22,55.21691915,-7.814760505163177
11241,Dundrean,Birdstown,133,55.0485028,-7.354858183145183
11243,Dunduffsfort,Newtown Cunningham,31,54.9598868,-7.566909070038255
11244,Dunfanaghy,Dún Fionnachaidh,168,55.1833879,-7.9717773
11245,Dunglow,An Clochán Liath,692,54.947435,-8.35538971357801
11246,Dungorman,Cloghard,46,54.785658600000005,-7.627029767743267
11247,Dunkineely,Dunkineely,156,54.6313,-8.3606983
11249,Dunlewy Near,Dún Lúiche,17,55.0183741,-8.09429188171941
11250,Dunmore (ED Annagary),Anagaire,32,55.0629673,-8.32968332793918
11251,Dunmore (ED Carrickart),Carraig Airt,76,55.1518197,-7.8034834
11252,Dunmore (ED Carrowkeel),An Cheathrú Chaol,13,55.1232366,-7.647521968966152
11253,Dunmore (ED Cross Roads),Na Croisbhealaí,127,,
11254,Dunmore (ED Killea),Killea,243,54.9566128,-7.4160812298349565
11255,Dunmuckrum,Bundoran Rural/Ballyshannon Urban,116,54.486111,-8.214722
11256,Dunnaloob,Urney West,36,54.7872149,-7.555241170921193
11257,Dunree,Desertegny,38,55.197768999999994,-7.543837137608294
11258,Dunross,Culdaff,146,55.28020815,-7.1616664667498515
11259,Duntinny,Grianfort,10,55.19828135,-7.640778976394146
11260,Dunwiley,Stranorlar,101,54.8192466,-7.763886437638696
11261,Durnesh,Ballintra,13,54.569033450000006,-8.194811698040432
11262,Eddrim Glebe,Donegal,52,54.66235385,-8.168146091667792
11263,Eden,Dawros,18,,
11265,Edenacarnan South,Edenacarnan,14,54.98576335,-7.768353449165248
11266,Edenagor,Carrickboy,21,54.4879931,-8.125333471271833
11267,Edenamoghil,Gleneely,50,54.76201455,-7.7090622561649464
11268,Edenamuck,Eanymore,12,54.67690435,-8.20901904840321
11269,Edenfinfreagh,An Ghrafaidh,8,54.79841345,-8.158500586097112
11270,Edenmore (ED Clonleigh North),Clonleigh North,38,54.85137905,-7.491318419850694
11271,Edenmore (ED Gleneely),Gleneely,68,54.79483305,-7.74765264091052
11272,Edergole (ED Glengesh),Gleann Gheis,71,54.75235335,-8.418639989005474
11273,Edergole (ED Lough Eask),Loch Iascaigh,5,54.7308852,-8.0452826
11277,Eighterross,Castlewray,20,54.9889618,-7.6456457
11278,Elaghbeg,Birdstown,178,,
11279,Eleven Ballyboes,Greencastle,331,55.2091164,-6.973335612298245
11280,Ellistrin Big,Gortnavern,25,55.00081555,-7.720900542121428
11281,Ellistrin Little,Gortnavern,27,54.99798145,-7.728656491677136
11282,Elly,Killygarvan,12,55.13012455,-7.589455182428021
11283,Errarooey Beg,Dún Fionnachaidh,23,55.1557169,-8.062690461291622
11284,Errarooey More,Dún Fionnachaidh,40,55.165030599999994,-8.055792709979677
11285,Errity,Manorcunningham,18,54.95083225,-7.610573921388027
11286,Errity Churchland,Manorcunningham,65,54.953660299999996,-7.6154711825125645
11287,Eskaheen,Kilderry,202,55.098677300000006,-7.2861498027867775
11288,Evishbreedy,Illies,11,55.1792889,-7.315968186273224
11290,Faiafannan,Killybegs,26,54.66182025,-8.432632768377287
11291,Falbane,Mín an Lábáin,29,54.97739985,-7.908641888127911
11292,Falcarragh,Na Croisbhealaí,118,55.136161,-8.1031097
11293,Falchorrib,An Machaire,45,54.89757575,-8.39333844897388
11295,Fallagowan (Aran Island),Árainn Mhór,38,54.9815404,-8.494344357430101
11297,Fallard or Calhame,Gortnavern,115,54.9889101,-7.7202918
11298,Fallask,Illies,44,55.179722,-7.406944
11300,Fanaghans,Inver,92,54.644645,-8.299368630501245
11301,Fanavolty,Fánaid Thuaidh,11,55.2339468,-7.687365048676563
11302,Farnagh,Rathmelton,28,55.0366939,-7.59235915722189
11304,Farragans (ED Lettermacaward),Leitir Mhic an Bhaird,32,54.855582150000004,-8.341140556160784
11305,Farranmacbride,Cill Ghabhlaigh,5,54.714094,-8.721227988856995
11307,Faugher,Cill Ghabhlaigh,14,55.172778,-7.916667
11309,Fawans,An Tearmann,24,55.06490185,-7.817410399749465
11310,Fawnaboy,Gort an Choirce,129,55.0871613,-8.1329728
11311,Fawninoughan,Glenalla,41,55.06638805,-7.666481210723392
11312,Fawnmore,Dún Fionnachaidh,34,55.1568611,-8.039075605717407
11313,Faymore,An Craoslach,45,55.12432285,-7.947084141200019
11315,Feddyglass,Feddyglass,22,54.87633235,-7.531886451853296
11316,Fegart,Ballyliffin,61,55.2983544,-7.323030276923079
11317,Figart (ED Dunfanaghy),Dún Fionnachaidh,50,55.179915300000005,-7.987538077987944
11318,Figart (ED Figart),Figart,42,54.85918905,-7.630678486759929
11319,Figary,Fahan,190,55.08966345,-7.472680311379659
11320,Fincashel,Pettigoe,10,54.55373865,-7.8791781727248065
11321,Findrum,Convoy,33,54.8467718,-7.674292799023682
11322,Finnabanes,Clogher,95,54.671111,-8.035833
11323,Finnadoos,Tullynaught,51,54.666260949999995,-8.02565642773221
11324,Finnadork Glebe,Convoy,16,54.8765817,-7.69749176501129
11325,Finner,Bundoran Rural/Bundoran Urban,528,54.5290697,-8.2268451
11326,Fintown,Baile na Finne,88,54.870556,-8.113333
11327,Fintragh,Crownarad,275,54.660647350000005,-8.50338613881549
11329,Flemingstown,Figart,7,54.879265399999994,-7.668951491176479
11331,Foffanagh,Illies,69,55.1566804,-7.399012
11332,Forquar,Millford,343,55.08122335,-7.695115220699019
11333,Fortstewart,Rathmelton,12,55.03063235,-7.5722403017739275
11334,Foxhall,Templedouglas,24,54.9413277,-7.8411366
11335,Foyagh,Ballintra,16,54.5676698,-8.1723145
11336,Foyfin,Urney West,25,54.7884093,-7.572953712748151
11337,Fraugher,Ards,65,,
11338,Freehold,Gleneely,16,55.2542774,-7.176763092133349
11340,Friary,Loch Iascaigh,88,54.70141945,-8.06222842961754
11341,Fycorranagh,Corravaddy,40,54.927887049999995,-7.714742534302006
11342,Gaddyduff,Straid,222,55.2650512,-7.412239303850102
11343,Galdonagh,Treantaghmucklagh,146,54.947037699999996,-7.565369739467898
11344,Galdonagh Glebe,Treantaghmucklagh,63,54.93331365,-7.56934633565237
11345,Galwolie (ED Cloghan),An Clochán,26,,
11346,Galwolie (ED Lettermacaward),Leitir Mhic an Bhaird,47,54.87840545,-8.274376461583005
11347,Gannew and Curreen,Málainn Bhig,50,54.701793550000005,-8.711803607536512
11348,Gargrim,Eanymore,38,54.678179400000005,-8.245473525578472
11349,Garrisonhill,Gleneely,24,54.790884399999996,-7.699092931542879
11350,Garrowcarry,Edenacarnan,95,54.98028705,-7.7966645425919054
11352,Garrygort,Millford,18,55.101389,-7.672778
11353,Garrymore,Millford,10,55.10908875,-7.649381678902866
11354,Garshooey,Killea,59,54.982000299999996,-7.432811181419087
11356,Garvagh,Tawnawully,29,54.7075,-8.026667
11357,Garvan,An Clochán,35,54.82965825,-7.9734953870104155
11358,Garvanagh,Cavangarden,50,54.5492907,-8.113198750347067
11359,Garvary (ED Birdstown),Birdstown,165,55.073338750000005,-7.385298392983367
11362,Garvegort Glebe,Ard an Rátha,30,54.7707369,-8.365775882745861
11363,Garveross,Cill Ghabhlaigh,11,54.715710400000006,-8.743297902781539
11364,Gilbertstown,Dunkineely,24,54.66436105,-8.384815289237377
11365,Gillystown,St. Johnstown,22,54.9053696,-7.48333536752907
11366,Glack,Críoch na Sméar,23,55.1951908,-7.5160565
11367,Glack or Bohullion,Inch Island,28,55.073061949999996,-7.500300690953244
11368,Glackadrumman,Culdaff,30,,
11370,Glasalt or Treanfasy,Carndonagh,83,,
11371,Glasbolie,Ballintra,78,54.55348895,-8.15006893185337
11372,Glashagh,Mín an Chladaigh,202,54.9795313,-7.7843186
11373,Glashagh Beg,An Clochán,15,,
11374,Glashagh More,An Clochán,19,,
11375,Glashbeggan,Inis Mhic an Doirn,47,54.9644866,-8.414383995492074
11377,Glaskeeragh,Templecarn,7,54.56507785,-7.99738611390682
11378,Glasly,Convoy,68,54.8567014,-7.683435180389428
11379,Glasmullan (ED Killea),Killea,13,54.94784035,-7.411167272464503
11380,Glasmullan (ED Mintiaghs),Mintiaghs,57,55.2144269,-7.410155
11382,Glassan,Críoch na Sméar,11,55.0898718,-7.946128383979969
11383,Glasserchoo,Gort an Choirce,154,55.140371200000004,-8.206375860993802
11384,Glebe (ED Carndonagh),Carndonagh,54,55.27027235,-7.287847213236207
11386,Glebe (ED Castlewray),Castlewray,604,54.957931450000004,-7.688594779704405
11388,Glebe (ED Clonleigh North),Clonleigh North,18,,
11389,Glebe (ED Cross Roads),Na Croisbhealaí,12,55.137845,-8.127592103645114
11390,Glebe (ED Desertegny),Desertegny,36,55.18291415,-7.510471352778696
11391,Glebe (ED Donegal),Donegal,245,54.9556707,-7.454220288700347
11392,Glebe (ED Fahan),Fahan,9,55.0821794,-7.459139537842445
11395,Glebe (ED Killybegs),Killybegs,70,54.6277693,-8.44571118569857
11400,Glebe (ED Rosguill),Ros Goill,24,55.2182478,-7.8244488959279686
11401,Glebe (ED Stranorlar),Stranorlar,205,54.80603025,-7.760496302744658
11404,Glebe Large,Fahan,18,55.07832835,-7.4527858230256605
11406,Glen,Tantallon,20,,
11407,Glen Lower,Rathmelton,39,55.0452425,-7.674854724853146
11410,Glenalla,Glenalla,79,55.09958385,-7.623929540731144
11413,Glencar Irish,Letterkenny Rural,1008,54.9644086,-7.7502233
11414,Glencar Scotch,Letterkenny Rural,1921,54.9631905,-7.7655659
11415,Glencash,Clonleigh North,59,54.8655978,-7.492445560879425
11416,Glencaw,Whitecastle,14,55.1520654,-7.1916289
11417,Glencoagh,Tantallon,136,54.6557514,-8.201496476595743
11418,Glencovet,Knock,90,54.78582735,-7.75875227355507
11419,Glencross,Rathmullan,24,55.1148673,-7.560696341608965
11420,Glencrow,Castlecary,150,55.1951777,-7.060757608610508
11422,Gleneely,Gleneely,32,54.766667,-7.683333
11423,Glenfad,Clonleigh North,49,54.86718835,-7.467871318643255
11424,Glengad,Carthage,543,,
11425,Glengesh,Gleann Gheis,62,54.740833,-8.446944
11426,Glengillagrana High,Glen,55,55.1313084,-7.796701980889075
11427,Glenieraragh,Glen,54,55.1,-7.816667
11429,Glenkeen,Millford,24,55.08233945,-7.679410077309351
11430,Glenkeeragh,Templedouglas,72,54.95359605,-7.833142416477065
11431,Glenkeeran,Magheraboy,13,54.903211299999995,-7.684014331164853
11432,Glenkeo (ED Carrickart),Carraig Airt,30,55.1552607,-7.7896009
11433,Glenkeo (ED Edenacarnan),Edenacarnan,27,54.96897525,-7.795772681721685
11434,Glenleary,Rathmelton,99,55.1641945,-7.6735328
11435,Glenlee,Killybegs,11,54.629129000000006,-8.466631816976962
11437,Glenmacannive,Na Gleannta,17,54.805400399999996,-8.262244828875108
11438,Glenmakee,Carndonagh,152,55.2581646,-7.3051458172562285
11439,Glenmaquin Upper,Kincraigy,30,54.8917339,-7.6533222664747385
11440,Glenmaquin Lower,Kincraigy,146,54.9051592,-7.660683822293304
11441,Glenmenagh,Glen,29,55.12383345,-7.803614433165565
11442,Glennagiveny,Greencastle,24,55.2418744,-6.996695195437949
11443,Glennahilt,Inis Mhic an Doirn,14,54.99369835,-8.42812209378576
11446,Glenree,Carraig Airt,30,55.152778,-7.826389
11448,Glentidaly,Glenalla,11,55.08288055,-7.6311681412733865
11449,Glentidaly Glebe,Glenalla,25,55.087381449999995,-7.643251786755353
11452,Glentown,Treantaghmucklagh,18,54.888297,-7.5854466
11453,Glinsk,Fánaid Thiar,48,55.208611,-7.781944
11454,Gobnascale,Convoy,8,54.8534569,-7.718876914316239
11455,Gola,Machaire Chlochair,5,,
11456,Goladoo,Tawnawully,18,54.71777005,-8.034667978735502
11457,Golan,Millford,41,55.0909354,-7.751145364903582
11458,Goland,Goland,121,54.7796381,-7.832557063972681
11459,Golard,Laghy,23,54.626025850000005,-8.047636857912593
11460,Goldrum,Loch Caol,39,55.06490185,-7.809002956365774
11461,Goorey,Malin,7,55.3079746,-7.302062264172006
11464,Gort (ED Straid),Straid,4,,
11465,Gort Glebe,Raphoe,22,54.868318599999995,-7.61298800600712
11471,Gortahork (ED Gleneely),Gleneely,48,54.75761585,-7.747941216933035
11472,Gortahork (ED Gortahork),Gort an Choirce,109,55.119517,-8.1344091
11473,Gortalaban,Edenacarnan,22,54.990062699999996,-7.78207605650033
11474,Gortalia,An Leargaidh Mhór,8,54.6212436,-8.56341339741939
11475,Gortanny,Whitecastle,77,55.1330854,-7.217821569205455
11476,Gortaquigley,Raphoe,17,54.870693,-7.582658687184871
11477,Gortaward,Tantallon,18,54.64273,-8.262355078541946
11478,Gortaway,Rathmelton,26,55.034167,-7.588333
11479,Gortcally,An Cheathrú Chaol,53,55.13405435,-7.631021476161248
11480,Gortcormacan,Birdstown,29,55.0705301,-7.3396124
11484,Gortgarra (Aran Island),Árainn Mhór,44,54.98250935,-8.503537580399673
11486,Gortin,Ballyarr,35,54.818008,-7.5758142
11487,Gortin North,Clonleigh North,81,54.85673075,-7.528344628308189
11488,Gortin South,Clonleigh South,6,54.81557455,-7.57489240298913
11489,Gortiness,Allt na Péiste,32,54.82482445,-7.93164869643627
11491,Gortinlieve,Killea,16,55.0033679,-7.43576023239256
11492,Gortinreagh,Clonleigh North,37,54.85280255,-7.554693277528655
11494,Gortleck,Desertegny,90,55.0971491,-7.7420739
11495,Gortlee,Letterkenny Rural,565,54.956825,-7.7243966
11496,Gortletteragh,Stranorlar,12,54.81568445,-7.73142658447617
11497,Gortlosky,Donegal,62,54.6699309,-8.105415366057176
11499,Gortlush,Castleforward,23,55.0012866,-7.4670207
11500,Gortmacall Beg,Millford,100,55.08568955,-7.712671487415797
11501,Gortmacall More,Millford,32,,
11502,Gortnabrade,Carraig Airt,108,55.15928115,-7.773456416652238
11503,Gortnacart Glebe,Ard an Rátha,18,54.7590886,-8.34519646714261
11504,Gortnacor,Grianfort,32,55.2008544,-7.646255888007088
11505,Gortnacorrib,Edenacarnan,72,54.97593955,-7.782234256374101
11507,Gortnagrace,Urney West,21,54.7537159,-7.59017721626368
11509,Gortnaleck,Críoch na Sméar,63,55.0976266,-7.9809197824969145
11510,Gortnalughoge,Ros Goill,9,55.234167,-7.795278
11512,Gortnamuck,Cloghard,36,54.6396697,-8.4883866
11513,Gortnamucklagh,Na Gleannta,440,54.797166250000004,-8.29591316565676
11514,Gortnasate,Anagaire,24,55.033333,-8.4
11515,Gortnasillagh,Na Gleannta,41,54.82745395,-8.337047316194257
11516,Gortnaskea,Birdstown,103,55.0778307,-7.3568024
11517,Gortnaskeagh,Kilmacrenan,53,55.0439427,-7.772088179765809
11518,Gortnatraw North,Fánaid Thiar,20,55.2307649,-7.74959145364132
11519,Gortnatraw South,An Cheathrú Chaol,184,55.146852100000004,-7.651753270260485
11520,Gortnavern (ED Gortnavern),Gortnavern,110,55.01722235,-7.732322646120237
11521,Gortnavern (ED Millford),Millford,11,55.118766550000004,-7.666508539134327
11524,Gortree,Castleforward,98,54.976667,-7.526944
11525,Gortyarrigan,Desertegny,75,55.17642885,-7.4716527135054545
11528,Grahamsland,Castlefinn,326,54.80857035,-7.599556512084444
11529,Grahamstown,Ballintra,11,54.5845051,-8.136888660936528
11530,Grange (ED Burt),Burt,8,55.02366155,-7.507668280854631
11531,Grange (ED Inch Island),Inch Island,120,,
11532,Gransha,Buncrana Rural,110,55.1177159,-7.436250003179639
11533,Grawky,Manorcunningham,10,54.956775449999995,-7.592150025682645
11535,Greaghs,Laghy,43,54.6211668,-7.9968632669354145
11536,Greenan,Loch Iascaigh,24,54.71769065,-8.06352666222968
11537,Greenans,An Ghrafaidh,6,54.7991496,-8.18283376371382
11538,Greenfield,Convoy,105,,
11539,Greenfort Demesne,Grianfort,10,55.19781145,-7.630021501140954
11540,Greenhill (ED Castlewray),Castlewray,64,54.9745555,-7.6611406
11541,Greenhill (ED Dunfanaghy),Dún Fionnachaidh,25,55.157544099999996,-7.991418227977165
11542,Greenhills,Stranorlar,27,,
11543,Grogagh,An Craoslach,31,55.10470685,-7.9172894944809284
11544,Grousehall,Grousehall,37,54.6083602,-7.769223201958864
11545,Grovehall or Newtowngrove,Ballyarr,33,,
11546,Gulladoo,Moville,361,55.21079065,-7.048621320863162
11547,Guystown,Clonleigh North,22,54.8479289,-7.534705418731109
11549,Halftown,Urney West,28,54.7814667,-7.5620536
11550,Hall Demesne,Tantallon,184,54.6396501,-8.196852327886859
11551,Haugh,Haugh,14,54.7003377,-8.107540963218598
11552,Haw (ED Clonleigh South),Clonleigh South,32,54.8162982,-7.5105160280875225
11553,Haw (ED Killea),Killea,64,54.9595419,-7.4686513
11554,Heneys,Haugh,73,54.67896665,-8.088056485512194
11557,Hollands,Clonleigh North,11,54.8613023,-7.511824495710531
11560,Illies,Illies,100,55.148333,-7.331944
11561,Illion (Aran Island),Árainn Mhór,33,54.986180649999994,-8.531350462743653
11562,Imlick,Killea,6,54.9713849,-7.4163818
11563,Inch Level (ED Burt),Burt,12,55.04625125,-7.446175437131462
11571,Inishfad,Ballintra,9,54.5825548,-8.185499911142532
11580,Inniskil (ED Church Hill),Mín an Lábáin,10,54.955595450000004,-7.958597291080217
11581,Inver Glebe,Inver,96,54.65207445,-8.283539383200925
11582,Ironworks,Stranorlar,9,54.80435155,-7.809569822155458
11584,Island Roy,Ros Goill,12,55.1911223,-7.79532035597863
11586,Keadew,Inis Mhic an Doirn,235,54.7909398,-8.4466948
11587,Keadew Upper,Clogher,17,54.707625449999995,-7.952539935419285
11588,Keadew Lower,Clogher,15,,
11589,Keeldrum,Clogher,19,54.6677587,-8.070800434973808
11590,Keeldrum Lower,Gort an Choirce,57,55.112856199999996,-8.149554137111153
11591,Keeldrum Upper,Gort an Choirce,87,55.06958445,-8.169786230631404
11592,Keeloges (ED Church Hill),Mín an Lábáin,77,54.9809238,-7.884142700667811
11594,Keeloges (ED Inver),Inver,56,54.6650245,-8.284792462709671
11595,Keenagh,Ardmalin,25,55.345,-7.314444
11596,Keenaghan (ED Edenacarnan),Edenacarnan,127,55.0147346,-7.77144067742101
11597,Keenaghan (ED Kilcar),Cill Charthaigh,122,54.636813399999994,-8.577857801539473
11601,Keshends,Castleforward,35,54.99837105,-7.475293973969184
11602,Kilaned,Cill Ghabhlaigh,21,54.7041521,-8.736237343595427
11603,Kilbarron,Ballyshannon Rural,116,54.5377582,-8.228385282315518
11604,Kilbeg,Cill Charthaigh,77,54.627276050000006,-8.614082416819137
11605,Kilcaddan,Gleneely,18,54.793056,-7.714167
11606,Kilcar,Cill Charthaigh,57,54.632607,-8.5923665
11607,Kilcasey,Cill Charthaigh,63,54.652778,-8.594722
11609,Kilclooney Beg,Dawros,60,54.822630700000005,-8.443606277830664
11610,Kilclooney More,Dawros,37,54.81421195,-8.436755502760736
11611,Kilconnell or Glebe,Kilmacrenan,88,,
11612,Kilcreen,Rathmelton,44,55.0284324,-7.614994046972084
11613,Kildarragh,Críoch na Sméar,54,55.13179125,-8.000483061618123
11614,Kildoney Glebe,Ballyshannon Rural,86,54.52333735,-8.253489109541537
11615,Kildrum Lower,Killea,49,54.9743127,-7.4092579
11616,Kildrum Upper,Killea,163,54.9796268,-7.418887314014798
11617,Kilgole,Ballintra,9,54.7665226,-8.4183664
11620,Kilkenny,Maas,14,54.7806501,-7.7262502
11621,Kill (ED Carrickart),Carraig Airt,49,55.1470992,-7.8158837
11622,Kill (ED Dunfanaghy),Dún Fionnachaidh,162,55.175496800000005,-7.957513986556677
11623,Kill (ED Largymore),An Leargaidh Mhór,35,54.6324455,-8.523411429
11624,Killaghtee,Dunkineely,16,54.626700650000004,-8.374062963557884
11625,Killindarragh,Anagaire,30,,
11627,Killavee,Grianfort,11,,
11628,Killeen,Carrickboy,31,,
11629,Killin (ED Bonnyglen),Bonnyglen,30,54.694983449999995,-8.264832742676234
11630,Killin (ED Malin),Malin,12,55.32003785,-7.300619419288257
11631,Killinangel Beg,Ballintra,22,54.5530329,-8.17840657495852
11632,Killinangel More,Ballintra,22,54.561587200000005,-8.178498172265904
11633,Killoughcarran,Caisleán na dTuath,36,55.109437,-7.894713412950596
11634,Killult,Na Croisbhealaí,186,55.1323355,-8.1297894
11635,Killultan,Dunkineely,7,,
11636,Killybegs,Killybegs,555,54.6362345,-8.4442592
11637,Killyclug,Edenacarnan,466,54.975556,-7.773889
11639,Killydesert,Edenacarnan,23,54.9977638,-7.7683466793945914
11640,Killydonnell,Rathmelton,33,55.017325549999995,-7.600130900431312
11642,Killygarvan Upper,Rathmullan,6,55.121363450000004,-7.534238084302568
11643,Killygordon,Killygordon,434,54.7972,-7.683303
11644,Killylastin,Edenacarnan,413,54.9793059,-7.755329423979054
11645,Killymasny,Killymasny,82,54.91775055,-7.8582026630949215
11646,Killynure or Wilson'sfort,Convoy,127,,
11647,Killyverry,Newtown Cunningham,82,54.991944,-7.541944
11648,Kilmackilloo,Críoch na Sméar,59,55.115461749999994,-7.92409557269152
11649,Kilmacreddan,Inver,60,54.64097,-8.31754862619508
11650,Kilmacrenan,Kilmacrenan,535,55.0305186,-7.7792108
11651,Kilmonaster Lower,Clonleigh South,15,54.83241955,-7.5768973518121285
11652,Kilmonaster Middle,Clonleigh South,20,54.82660405,-7.5756016858330355
11653,Kilmore,Gartán,26,,
11655,Kilpheak,Killymasny,48,54.9450132,-7.8790349727738445
11656,Kilrean,An Clochán,23,54.781109,-8.3200694
11657,Kilrean Lower,Ard an Rátha,14,54.7776454,-8.343527941962844
11658,Kilrean Upper,Ard an Rátha,136,54.7697819,-8.301648667394842
11659,Kilross,Stranorlar,19,54.834722,-7.745278
11660,Kiltole,Figart,461,54.859054900000004,-7.647098759225891
11662,Kiltown,Killygordon,10,54.7995073,-7.661333225060752
11663,Kiltoy,Castlewray,101,54.963128,-7.7013665
11665,Kiltyfergal,An Clochán,63,54.82623555,-7.904346319043093
11667,Kimmid,Pettigoe,19,54.55528985,-7.850728446489402
11668,Kincaslough,Inis Mhic an Doirn,37,55.0252359,-8.39086010962452
11669,Kincraigy,Kincraigy,49,54.92192025,-7.6476839081823815
11671,Kindroghed,Gleneely,16,55.2627766,-7.1338873
11673,Kingarrow,Baile na Finne,26,54.9,-8.038333
11674,Kinletter,Knock,66,54.7610183,-7.787370441727609
11676,Kinnacally,St. Johnstown,31,54.931427,-7.493475510503178
11677,Kinnaderry,An Clochán,31,54.82716995,-7.879609900147131
11678,Kinnagoe,Illies,91,55.161708,-7.4032536
11679,Kinnakillew,Cill Ghabhlaigh,33,54.7166813,-8.696723
11680,Kinnalargy,Ros Goill,73,55.1989306,-7.819748307587983
11681,Kinnalough,Fánaid Thuaidh,21,55.2369188,-7.67153700381073
11682,Kinnea,Dunaff,100,55.274335300000004,-7.4736561624109825
11684,Kinnoghty,Gleann Gheis,44,54.76196405,-8.44142316481868
11686,Kirkneedy,Killymasny,27,54.9066418,-7.808257
11687,Kirkstown,Ballymacool,103,54.958373,-7.7822371
11688,Knader,Ballyshannon Rural,83,54.502861100000004,-8.150397834189384
11689,Knock (ED Culdaff),Culdaff,15,55.28854575,-7.143460358045939
11690,Knock (ED Knock),Knock,160,54.780034549999996,-7.771837231720218
11691,Knockagar,Eanymore,30,54.684302900000006,-8.167740171732483
11692,Knockagarran,Convoy,65,54.838886,-7.722910648125581
11693,Knockamany,Ardmalin,10,55.3295666,-7.332341809219533
11694,Knockastoller,Machaire Chlochair,273,55.05091165,-8.293999798467521
11696,Knockbrack (ED Carrowkeel),An Cheathrú Chaol,25,55.18852745,-7.643027754407779
11697,Knockbrack (ED Magheraboy),Magheraboy,135,54.913333,-7.683056
11699,Knockergrana,Culdaff,8,55.26782155,-7.131749228771336
11700,Knockfair,Stranorlar,20,,
11701,Knockfola,Mín an Chladaigh,182,55.142222,-8.28
11702,Knockglass,Ardmalin,6,55.327877599999994,-7.313148614392482
11703,Knocknabollan,Kilmacrenan,41,55.0500011,-7.811387791430439
11704,Knocknafaugher,Ards,17,55.1685793,-7.939602
11705,Knocknahorna,Inver,41,54.644935149999995,-8.325329930989806
11706,Knocknamona,Letterkenny Rural,353,54.9635762,-7.724591703995339
11707,Knocknashangan,Carrickboy,12,54.47740125,-8.118386245175872
11708,Knockrawer,Castlefinn,16,54.8304027,-8.1925368
11709,Knockybrin,Castlewray,49,54.9835076,-7.706337
11710,Labbadish,Kincraigy,77,54.933333,-7.616667
11712,Lackagh,Dawros,43,54.83916465,-8.484832459803922
11715,Lackcrom,Haugh,13,54.703333,-8.117778
11716,Lacklea,An Ghrafaidh,14,54.784037049999995,-8.178673137166317
11717,Lacklom,Ballintra,14,54.58601555,-8.156118842437415
11718,Lacknacoo,Gartán,20,55.0099128,-7.9201252235752
11719,Laconnell,Inis Caoil,35,54.760278,-8.499722
11721,Laddan,Fánaid Thiar,16,55.22406105,-7.727628429260123
11723,Lagacurry,Ballyliffin,59,55.31,-7.339722
11725,Laghy,Laghy,82,54.6156354,-8.0884261
11728,Laheen,Cavangarden,30,54.537778,-8.138889
11729,Lane Head,Castlewray,33,55.0624448,-7.3544686
11730,Laraghirril,Culdaff,40,55.26640075,-7.162529796503974
11731,Larganreagh,Ros Goill,124,55.199167,-7.83
11734,Largnalarkan,Baile na Finne,11,54.88114,-8.034993759162898
11735,Largnalore,An Clochán,22,54.84748845,-7.852218441914602
11736,Largybrack,Inis Caoil,8,54.73601975,-8.599827124720607
11737,Largymore,An Leargaidh Mhór,11,,
11738,Largynagreana,Killybegs,9,54.649316150000004,-8.459740814524741
11739,Largysillagh,Crownarad,75,54.64177995,-8.510851478395796
11740,Leabgarrow (Aran Island),Árainn Mhór,115,54.995065249999996,-8.503475483498871
11741,Leabrannagh (Aran Island),Árainn Mhór,23,54.978954099999996,-8.528841664717927
11743,Leaght,Killygordon,79,54.816111,-7.6475
11744,Leamacrossan,Whitecastle,25,55.1503333,-7.247043762223097
11745,Leamagowra,Inis Caoil,3,54.72531605,-8.507686062139873
11746,Leat Beg,Fánaid Thiar,25,55.200679550000004,-7.762193584225528
11748,Leckbeg,Inis Mhic an Doirn,21,54.986690100000004,-8.43807560898458
11749,Leckenagh,Inis Mhic an Doirn,145,54.976444900000004,-8.418978072925992
11750,Lederg,Desertegny,17,55.21420985,-7.526188940018315
11751,Lefinn,Inis Mhic an Doirn,36,54.977705549999996,-8.377547478862093
11752,Legacurry,Tullynaught,8,54.62418475,-8.123067415989397
11754,Legaltan,Ballyshannon Rural,31,54.520074449999996,-8.192151659557501
11755,Legboy,Grianfort,8,55.2053413,-7.6724543
11756,Leggandorragh,Clonleigh South,8,54.82486065,-7.508304991766128
11757,Leghawny,Tullynaught,89,54.66390885,-8.006108900237969
11758,Legland (ED Killygarvan),Killygarvan,5,55.117844250000005,-7.572796054792198
11759,Legland (ED Lettermore),Lettermore,20,54.875876700000006,-7.77327651676551
11760,Legmuckduff,Glenalla,36,55.074169299999994,-7.675654029671902
11761,Legnabraid or Cunninghamstown,Clonleigh South,21,,
11763,Legnahoory,Edenacarnan,111,55.003611,-7.804722
11765,Legnanornoge,Ballintra,25,54.5722945,-8.080149743121396
11766,Legnatraw,St. Johnstown,55,54.9109889,-7.498275960506938
11768,Lehardan,Cnoc Colbha,60,55.143056,-7.564444
11769,Leitrim (ED Castleforward),Castleforward,16,54.9896803,-7.450547497064778
11770,Leitrim (ED Turmone),Turmone,60,55.24516345,-7.09460130393947
11772,Lenan,Dunaff,102,55.250556,-7.515833
11773,Lergadaghtan (ED Glencolumbkille),Gleann Cholm Cille,32,54.63629215,-8.647612241168673
11774,Lergadaghtan (ED Largymore),An Leargaidh Mhór,8,54.61906065,-8.57616029847436
11777,Lergynasearhagh,Inis Caoil,10,54.7268916,-8.568632152933219
11778,Letter (ED Dunaff),Dunaff,115,55.2633783,-7.486520070656372
11779,Letter (ED Fahan),Fahan,33,55.0821105,-7.4381727
11781,Letter (ED Kilmacrenan),Kilmacrenan,129,55.03036625,-7.748071980551991
11782,Letter (ED Largymore),An Leargaidh Mhór,41,54.6277477,-8.57038102088729
11783,Letterbarra,Eanymore,61,54.690556,-8.181667
11784,Letterbrick,An Clochán,82,54.865341099999995,-7.988676270917969
11785,Lettercau,Cró Bheithe,19,54.97817405,-8.283045604848073
11786,Lettercran,Grousehall,9,54.60928765,-7.719560366188577
11787,Letterfad (ED Eanymore),Eanymore,26,54.7227755,-8.166154374912235
11788,Letterfad (ED Kilmacrenan),Kilmacrenan,10,55.04569,-7.794540601736784
11789,Lettergull,Feddyglass,16,54.9008898,-7.5256961
11790,Letterilly,Na Gleannta,49,54.809778550000004,-8.325628331011988
11791,Letterkenny,Letterkenny Urban,2199,54.9517933,-7.7354381
11792,Letterleague,Corravaddy,86,54.9185209,-7.7705328
11793,Lettermakenny,Stranorlar,66,54.828333,-7.787222
11794,Lettermore (ED Binbane),An Bhinn Bhán,10,54.711667,-8.242222
11795,Lettermore (ED Lettermore),Lettermore,45,54.8615998,-7.7705697
11797,Lettershanbo (ED Cloghan),An Clochán,42,54.8509339,-7.888774404209864
11798,Lettershanbo (ED Lettermore),Lettermore,21,54.8821757,-7.814504858599687
11799,Lettertreane,Eanymore,38,54.70321745,-8.180357510526191
11800,Liafin,Desertegny,106,55.183686050000006,-7.494987136950276
11801,Lifford,Clonleigh South,408,54.8330888,-7.4836241
11803,Lifford Common,Clonleigh South,239,54.83635485,-7.498166653700565
11805,Linsfort,Desertegny,89,55.171944,-7.497222
11806,Lisavaddy,Corkermore,7,54.656389,-8.352222
11807,Lisclamerty,Kincraigy,26,54.916080750000006,-7.624540684645932
11808,Liscooly,Killygordon,19,54.799444,-7.642778
11809,Lisfannan (ED Burt),Burt,19,55.04050545,-7.4023967169891565
11810,Lisfannan (ED Fahan),Fahan,219,,
11811,Liskeeraghan,Gleann Gheis,16,54.786294999999996,-8.482102000074624
11812,Liskeran,Stranorlar,11,54.84069195,-7.7967106843000735
11813,Liskey,Clonleigh North,41,54.845336200000006,-7.552512400850219
11814,Lismintan or Ballyruddelly,Ballintra,98,,
11815,Lismoghry,Treantaghmucklagh,70,54.9381234,-7.5499685
11816,Lismonaghan,Corravaddy,696,54.9342236,-7.7404747
11818,Lismullyduff,Gleneely,109,54.7464027,-7.7453867
11820,Lisnamulligan,Cloghard,28,54.779879300000005,-7.6181823754219735
11822,Lisnanees Upper,Castlewray,35,54.9875234,-7.6905984
11823,Lisnapaste,Ballintra,84,54.593417,-8.085552791241305
11825,Lisnaree (ED Stranorlar),Stranorlar,19,54.83536225,-7.7394647101891
11826,Lisnenan,Letterkenny Rural,633,54.9707989,-7.7082992
11828,Lissacholly,Carrickboy,56,54.4776288,-8.142771635670812
11831,Listack,Corravaddy,8,54.910556,-7.770556
11832,Listannagh,Feddyglass,15,54.88372,-7.509562184110836
11833,Listellian,Magheraboy,233,54.9193197,-7.6977429
11834,Listicall Lower,Killea,58,54.96757395,-7.47869807173079
11835,Listicall Upper,Killea,15,54.9648935,-7.498085583744003
11837,Longfield (ED Lettermacaward),Leitir Mhic an Bhaird,15,54.84819505,-8.331350045630959
11838,Longhill (ED Glenalla),Glenalla,12,55.0705952,-7.640005554358829
11839,Losset,Gartán,43,55.031667,-7.882778
11841,Loughagannon,Castlewray,27,54.9957402,-7.694997272880752
11842,Loughagher,Cró Bheithe,11,54.97335875,-8.235716678084511
11843,Loughanure,Anagaire,387,54.997222,-8.290833
11844,Loughaskerry,An Tearmann,12,55.0345581,-7.9213167
11850,Lougheask Demesne,Loch Iascaigh,89,54.6893398,-8.066009334193245
11852,Lougherbraghy,Malin,30,55.33752245,-7.234732142203708
11854,Loughfad (ED Maas),Maas,70,54.8240106,-8.409366338727011
11857,Loughmuck,Gleann Léithín,8,54.853921299999996,-8.117659562499995
11858,Loughmuilt,Dunkineely,19,54.67092725,-8.369748002084453
11859,Loughnagin,Castlewray,243,54.9714402,-7.690673279811811
11862,Loughros Glebe,Glenalla,26,55.07590775,-7.665458489259043
11864,Loughsalt,An Machaire,9,54.91611795,-8.397685471159093
11866,Loughnambraddan,Baile na Finne,14,54.871081700000005,-8.14422884926818
11867,Lower Maymore,St. Johnstown,41,54.91213045,-7.456948598635737
11869,Luddan,Buncrana Rural,317,55.116111,-7.451111
11871,Lughveen,An Ghrafaidh,7,54.8451801,-8.088217803308327
11872,Lunniagh,Machaire Chlochair,170,55.09422375,-8.297973123258103
11873,Lurgabrack,Dún Fionnachaidh,50,55.1884759,-7.995230872395126
11875,Lurgan,Ballintra,12,54.548696500000005,-8.159393077322564
11876,Lurganboy (ED Ardara),Ard an Rátha,13,54.76052095,-8.396654871320337
11877,Lurganboy (ED Donegal),Donegal,32,55.1244413,-7.5842245
11878,Lurganboy (ED Greenfort),Grianfort,3,55.22293485,-7.612291308502199
11879,Lurganboy (ED Killygarvan),Killygarvan,22,55.1244413,-7.5842245
11880,Lurganbrack,Cnoc Colbha,20,55.16616915,-7.59587518700738
11881,Lurganshannagh,Clonleigh North,14,54.849829099999994,-7.568772620725559
11882,Lurgy,Magheraboy,17,54.920186,-7.683222852976934
11883,Lurgybrack,Magheraboy,18,54.9347817,-7.6978331016207475
11884,Maas,Maas,59,,
11885,Macmeenstown,Convoy,26,54.86859775,-7.685156737947244
11886,Madavagh,Leitir Mhic an Bhaird,61,54.8541107,-8.30604368408872
11887,Magheestown,Figart,15,54.89561365,-7.585203130087963
11888,Maghera,Inis Caoil,8,54.7620704,-8.5271702
11889,Maghera Beg,Manorcunningham,37,54.9655951,-7.61465803158119
11890,Maghera More,Manorcunningham,13,54.9580048,-7.62862927573142
11891,Magherabeg (ED Fahan),Fahan,149,55.0665716,-7.4429506
11892,Magherabeg (ED Rosguill),Ros Goill,93,55.20000885,-7.82877515160553
11893,Magherablad,Caisleán na dTuath,24,55.13495965,-7.885065097635659
11895,Magheraboy (ED Killygordon),Killygordon,85,54.806672250000005,-7.654515800063866
11896,Magheraboy (ED Magheraboy),Magheraboy,45,54.93977615,-7.660819385528683
11897,Magheraboy (ED Raphoe),Raphoe,68,54.876202750000004,-7.588098122825242
11899,Magheracar,Bundoran Rural/Bundoran Urban,1285,54.47085865,-8.287791946358329
11900,Magheraclogher,Machaire Chlochair,444,55.06415115,-8.298831932557864
11902,Magheracloy,Treantaghmucklagh,32,54.92114945,-7.520483427922966
11903,Magheracorran,Convoy,47,54.846901599999995,-7.734162239004635
11904,Magheradrumman (ED Ballyarr),Ballyarr,108,55.063970350000005,-7.681033898809526
11905,Magheradrumman (ED Fanad North),Fánaid Thuaidh,65,55.23873115,-7.664773447813075
11906,Magheradrumman (ED Gleneganon),Glennagannon,232,55.224642349999996,-7.213488679679203
11907,Magheragallan,Machaire Chlochair,214,55.08097985,-8.300329680668629
11908,Magherahaan,Raphoe,40,54.861777849999996,-7.588554335004085
11909,Magherahee,Castlefinn,20,54.84549975,-7.637229024521324
11910,Magheralahan,Whitecastle,6,55.2756204,-7.3268302
11911,Magheramagorgan,Carraig Airt,9,55.1636968,-7.821791866186954
11912,Magheramenagh,Dún Fionnachaidh,39,55.155842699999994,-8.001232918983302
11916,Magheranan,Castlewray,446,54.9569334,-7.699073178683694
11917,Magheranappan,Convoy,91,54.863034,-7.713599925948211
11918,Magheranaul,Ballyliffin,52,,
11919,Magherapaste,Stranorlar,18,54.80955805,-7.781948382482089
11920,Magherareagh,Castlefinn,23,54.799829149999994,-7.557437335628843
11921,Magheraroarty (ED Creeslough),An Craoslach,14,55.128448750000004,-7.8942475773324325
11922,Magheraroarty (ED Gortahork),Gort an Choirce,217,55.1411146,-8.1728335
11923,Magheraroarty Mountain,Gort an Choirce,41,55.105765500000004,-8.210448296399935
11925,Magherasollus,Figart,31,54.884598249999996,-7.582081310279424
11926,Magheravall or Midcut,Lettermore,12,,
11927,Magherawardan,An Cheathrú Chaol,33,55.18139995,-7.603838675722452
11931,Maghery Glebe,An Machaire,100,54.92744405,-8.435189167726218
11932,Magheryard,Malin,26,55.2978212,-7.3179354
11933,Magherycallaghan,Urney West,18,54.78838155,-7.561789385452552
11934,Malin Beg,Málainn Bhig,80,54.6684158,-8.7817659
11935,Malin More,Málainn Bhig,116,54.6873715,-8.753587014238793
11936,Manorcunningham,Manorcunningham,294,54.9546405,-7.6222695
11937,Manorcunningham Churchland,Manorcunningham,264,54.9513711,-7.626596888007837
11939,Marblehill,Ards,5,55.17433835,-7.904136368934225
11941,Masiness,An Craoslach,104,55.1298188,-7.914316
11945,Massreagh,Kilmacrenan,146,,
11948,Meenabaltin,Whitecastle,21,55.16624295,-7.216175913432098
11951,Meenabollagan,An Machaire,59,,
11953,Meenabrock (ED Corkermore),Corkermore,44,54.67405575,-8.34668290376301
11955,Meenacahan,An Bhinn Bhán,23,54.72663275,-8.265646153518116
11956,Meenacally,Donegal,30,54.681070500000004,-8.150450330842402
11957,Meenacargagh or Raneany Barr,Laghy,14,,
11958,Meenacarn,Leitir Mhic an Bhaird,20,54.8818883,-8.3143394
11959,Meenachallow,Na Gleannta,74,54.783333,-8.271667
11961,Meenacharvy,Cill Ghabhlaigh,38,54.717413050000005,-8.620455334592798
11965,Meenaclady,Mín an Chladaigh,93,55.12056045,-8.262390325461165
11969,Meenacross (ED Kilgoly),Cill Ghabhlaigh,13,54.724722,-8.651389
11970,Meenacross (ED Maghery),An Machaire,36,54.907778,-8.382222
11971,Meenacung (ED Magheraclogher),Machaire Chlochair,19,55.0455448,-8.1921448
11976,Meenadiff (ED Kilgoly),Cill Ghabhlaigh,14,54.7200354,-8.647609866889837
11977,Meenadiff (ED Mintiaghs),Mintiaghs,8,55.2189883,-7.4100085
11978,Meenadoan,Baile na Finne,20,,
11980,Meenadreen (ED Kilgoly),Cill Ghabhlaigh,9,54.719444,-8.663889
11981,Meenadreen (ED Tullynaught),Tullynaught,24,54.65681725,-7.986983290386977
11982,Meenaduff,Machaire Chlochair,89,55.2279274,-7.4115691
11985,Meenagolan (ED Fintown),Baile na Finne,34,54.86665455000001,-8.027560954841952
11986,Meenagolan (ED Gleneely),Gleneely,29,54.733889,-7.745556
11989,Meenagory,Mintiaghs,226,55.167927950000006,-7.4541218887709455
11990,Meenagowan,Leitir Mhic an Bhaird,50,54.8485725,-8.320202794747733
11991,Meenagowna,Inis Mhic an Doirn,18,54.9954667,-8.438396133016894
11992,Meenagran,An Bhinn Bhán,21,54.70399305,-8.249868293133222
11994,Meenagrauv (ED Altnapaste),Allt na Péiste,24,54.80423505,-7.89299899465256
11996,Meenagrillagh,Maas,6,54.80470915,-8.417388300229891
11997,Meenagrubby,An Ghrafaidh,12,54.81905605,-8.135574087632968
12000,Meenahinnis,Gleneely,22,54.7548399,-7.739761040145288
12001,Meenahoney,Killygordon,11,54.81628555,-7.622775956728978
12002,Meenahorna,An Clochán,6,54.85206995,-7.863712786476242
12003,Meenakillew,Gleann Gheis,25,54.71924195,-8.42949864925108
12005,Meenalaban,Lettermore,14,54.85876125,-7.835146855233388
12006,Meenalargan,Na Gleannta,24,54.8259711,-8.2844199
12008,Meenalecky,Anagaire,151,55.02894105,-8.285653909814291
12010,Meenalig,An Clochán,33,54.762213,-8.3378351
12011,Meenalooban,Desertegny,20,55.17617325,-7.506093098340692
12012,Meenamalragh,An Ghrafaidh,9,54.8165214,-8.21035803775781
12014,Meenamullaghan,Illies,12,55.143781950000005,-7.3754292919633375
12017,Meenanarwa,An Ghrafaidh,14,54.83100365,-8.099220175850682
12018,Meenaneary,Gleann Cholm Cille,79,54.69832505,-8.625194973594954
12020,Meenanillar,Machaire Chlochair,186,55.065598449999996,-8.263663031545654
12025,Meenasrone North,Gleann Léithín,15,54.8691903,-8.082701754777593
12027,Meenataggart,Haugh,9,54.720278,-8.124167
12030,Meenatinny,Suí Corr,13,54.91214865,-8.018769626979497
12031,Meenatole,Rathmelton,11,55.010504499999996,-7.697873228949398
12033,Meenavale,An Ghrafaidh,6,54.80773635,-8.152760200525766
12035,Meenavally (ED Mulmosog),Maol Mosóg,10,54.71683295,-8.407322112432912
12036,Meenavanaghan,Whitecastle,46,54.6211668,-7.9968632669354145
12038,Meenavean,Gleann Cholm Cille,16,54.673611,-8.689167
12039,Meenavoy,Stranorlar,82,54.8416981,-7.768431666013765
12042,Meenawilligan,Mín an Lábáin,7,54.967018550000006,-7.918286506380687
12044,Meenawullaghan,Inver,15,54.6713716,-8.314354397736299
12045,Meenbane,Stranorlar,17,54.84178905,-7.840879872184899
12046,Meenbannad,Inis Mhic an Doirn,117,54.9898972,-8.361143835203034
12049,Meenboy,An Leargaidh Mhór,11,54.64212295,-8.534353079957684
12051,Meencargagh (ED Dooish),Dooish,41,54.78293515,-7.856946290976125
12054,Meencorwick,Machaire Chlochair,28,54.984444,-8.241944
12056,Meendacalliagh,Illies,42,55.1754055,-7.340374611847183
12057,Meenderrygamph,Machaire Chlochair,69,55.05772315,-8.230159358483522
12058,Meenderryherk Glebe,Cró Bheithe,14,54.94189205,-8.256922314155016
12059,Meenderrynasloe,Anagaire,245,55.01604515,-8.290406507735446
12060,Meenderryowan,Anagaire,177,55.01429105,-8.335779219349563
12061,Meendoran,Straid,103,55.238056,-7.383056
12062,Meendrain,An Machaire,36,54.91627985,-8.384724697953335
12064,Meengilcarry (ED Mulmosog),Maol Mosóg,21,54.70395635,-8.397525250268604
12067,Meengilcarry (ED Cloghan),An Clochán,8,54.87550695,-8.012123220459987
12069,Meenlaragh (ED Gortahork),Gort an Choirce,177,55.144722,-8.186667
12071,Meenletterbale,Greencastle,33,55.2447325,-7.037511527555875
12072,Meenlougher,Cloghard,39,54.78327715,-7.648695632200203
12073,Meenmore,An Clochán Liath,713,54.9606219,-8.3860876
12074,Meenmore East,Baile na Finne,32,54.8859193,-8.089896756033674
12075,Meenmore West,Gleann Léithín,16,54.87929325,-8.164850788635817
12076,Meenreagh (ED Gleneely),Gleneely,44,54.729086949999996,-7.773288901211195
12077,Meenreagh (ED Loughkeel),Loch Caol,13,55.07348935,-7.7930664632582705
12078,Meenreagh (ED Rathmullan),Rathmullan,34,55.106092849999996,-7.57026641368058
12084,Meentagh,An Cheathrú Chaol,15,55.150652050000005,-7.628523425430984
12085,Meentaghconlan,Cnoc Colbha,8,55.1377322,-7.614357776090342
12086,Meentaghmore,Cnoc Colbha,20,55.153332,-7.616401926129358
12087,Meentakeeraghan,An Leargaidh Mhór,18,54.631157349999995,-8.557413713992352
12088,Meentanadea,Maol Mosóg,10,54.7368293,-8.363156567924696
12089,Meentanakill,Bonnyglen,12,54.724299450000004,-8.280662948234887
12090,Meentashesk,Gleann Gheis,4,54.7499308,-8.510476324472194
12091,Meentullynagarn,Maol Mosóg,20,54.699444,-8.404167
12094,Meentymorgal,Gleann Léithín,9,54.8631043,-8.115162002804539
12096,Meenybraddan,Bonnyglen,15,54.719722,-8.301667
12097,Meenychanon,An Leargaidh Mhór,13,54.661944,-8.563333
12098,Meenyhooghan,Killybegs,32,54.6499952,-8.45709235571864
12102,Mevagh,Ros Goill,17,55.205904950000004,-7.8161061364909425
12105,Millbrook,Rathmullan,12,,
12106,Millfarm,Urney West,9,54.781790400000006,-7.565672347381403
12107,Millford,Millford,381,55.09372165,-7.709529902668123
12108,Millsessiagh,Clonleigh South,33,54.84203545,-7.528705163485297
12110,Milltown (ED Convoy),Convoy,204,54.8650271,-7.6214686
12112,Milltown (ED Killymasny),Killymasny,49,54.9225888,-7.8075687
12114,Milltown (ED Raphoe),Raphoe,14,54.848056,-7.619722
12115,Milltown (ED Tawnawully),Tawnawully,31,54.6859196,-8.0319657
12116,Mogumna,Maol Mosóg,13,54.7509471,-8.41050652893492
12118,Momeen,Treantaghmucklagh,57,54.908979,-7.532680285622092
12119,Monargan Glebe,Ard an Rátha,65,54.756111,-8.389722
12120,Monclink,Kincraigy,28,54.94771835,-7.576783962811296
12121,Mondooey Lower,Kincraigy,32,54.925609699999995,-7.594856862450234
12122,Mondooey Middle,Kincraigy,60,54.9116501,-7.591350523749302
12123,Mondooey Upper,Kincraigy,39,54.9111269,-7.604300661832929
12124,Moneen,Clonleigh North,20,54.853659300000004,-7.512959122718836
12125,Monellan,Gleneely,92,54.7707954,-7.702254586856116
12126,Moness (ED Burt),Burt,110,55.03058235,-7.452143427841767
12127,Moness (ED St. Johnstown),St. Johnstown,21,54.919041699999994,-7.485350458333333
12128,Money Beg,Dún Lúiche,68,55.02977705,-8.153517193126506
12129,Moneymore (ED Dunlewy),Dún Lúiche,33,,
12130,Moneydarragh,Gleneely,130,55.2190871,-7.12882474720959
12131,Moneygreggan,Newtown Cunningham,70,55.00754535,-7.537383788798186
12132,Moneyhaughly,Manorcunningham,102,54.974167,-7.589722
12133,Moneymore (ED Ballintra),Ballintra,14,54.579902950000005,-8.13554133699402
12134,Moneymore (ED Newtown Cunningham),Newtown Cunningham,28,54.974817200000004,-7.539249726373043
12135,Monfad,Newtown Cunningham,59,,
12136,Mongavlin,St. Johnstown,44,54.90650455,-7.458809264560873
12137,Monglass,Castleforward,44,54.9803753,-7.4533187
12139,Monreagh (ED Killea),Killea,38,54.9584937,-7.4560851
12140,Monreagh or Barr of Kilmackilvenny,Fahan,73,,
12142,Mooneennahasragh,An Clochán,19,,
12143,Moress,Inch Island,134,55.070730749999996,-7.479862967042433
12144,Moross,Rosnakill,21,55.19540525,-7.704701187076774
12145,Mossfield,Mín an Lábáin,6,54.9781502,-7.926841690700469
12146,Mossy Glen,Greencastle,49,,
12147,Mountainpark (ED Figart),Figart,21,54.8901975,-7.597824044784437
12149,Mountcharles,Tantallon,491,54.646389,-8.195556
12150,Mounthall,Gleneely,57,54.764095499999996,-7.6954942571186855
12151,Mountpleasure,Mín an Lábáin,21,54.97968925,-7.900287948420358
12152,Moy,Maol Mosóg,9,54.75105135,-8.38948127337
12154,Moyle (ED Ballyarr),Ballyarr,28,55.06849455,-7.704544782034716
12155,Moyle (ED Newtown Cunningham),Newtown Cunningham,29,54.99494745,-7.534716077083344
12156,Moylehill,Ballyarr,26,55.0607359,-7.708041537393841
12157,Moylemoss,Newtown Cunningham,7,54.99998455,-7.523596867646255
12158,Moyne,Tullynaught,15,54.631702250000004,-8.057393651972989
12159,Moyra Glebe,Na Croisbhealaí,90,55.1140121,-8.052943146940489
12160,Muckros (ED Donegal),Donegal,37,54.613056,-8.581111
12161,Muckros (ED Largymore),An Leargaidh Mhór,27,54.613056,-8.581111
12162,Muff (ED Culdaff),Culdaff,169,55.28995605,-7.172620631882407
12163,Muff (ED Kilderry),Kilderry,843,55.0674714,-7.2691516
12164,Muineagh (ED Desertegny),Desertegny,65,55.194167,-7.530278
12165,Muineagh (ED Fanad West),Fánaid Thiar,24,55.185489200000006,-7.727004354514756
12166,Mullafin,Kincraigy,19,54.9001431,-7.5904932
12168,Mullaghaneary,Gleneely,31,54.768747399999995,-7.725642398134591
12169,Mullaghanny,Clonleigh North,27,54.85794535,-7.561087763355932
12170,Mullaghderg,Anagaire,49,55.03511685,-8.39195060997188
12171,Mullaghderg Mountain Pasture,Anagaire,64,55.016447799999995,-8.363199347877856
