stop_id,stop_name,stop_lat,stop_lon
"7000B158241","Derry (Magee Campus Strand Road) 1","55.0044762846992","-7.3217817014213"
"821000001","Green Lane 1","52.8419072869911","-6.91696463664122"
"821000002","Green Lane 2","52.8417277006612","-6.91698394927199"
"8210B3355701","Carlow, Carlow Coach Park ->SW2","52.8336290882757","-6.92684707991193"
"8210B351711","Lucy Nolan's 1","52.7401879532436","-6.77039976288263"
"8210B351721","Lucy Nolan's 2","52.7400872675218","-6.77022488071272"
"8210B3555602","Tullow, Tullow The Square ->NE1","52.8029355076111","-6.73616514706818"
"8210B3555604","Tullow, Tullow The Square ->NE2","52.8031232569624","-6.73607071603336"
"8210LL10002","Conway's Public House 1","52.6833829205394","-6.68516065900002"
"8210LL10003","Conway's Public House 2","52.6833899377097","-6.68498296083435"
"8240000014","Oldtown Court, Clara Court 1","53.5242956978268","-6.31610474958153"
"8240000015","Naul 2","53.5859021169114","-6.28980589588212"
"8240000022","Oldtown Court, Clara Court 2","53.5243012181692","-6.31649668279199"
"8240000023","Borranstown, Ashbourne/Garristown 1","53.5446463293494","-6.41083115947315"
"8240000286","Bun A Knock 1","53.582001941068","-6.28670103834663"
"8240000552","Garristown, Garristown 2","53.5665015337178","-6.38380235230897"
"8240000553","Garristown, Garristown ->N","53.566604027305","-6.38340590416679"
"8240000554","Garristown, Baldwinstown 2","53.5643010471861","-6.35360188834395"
"8240000556","Bun A Knock 2","53.5822025839333","-6.28690437106991"
"8240000559","Balbriggan, Chapel Street 2","53.6098015683298","-6.18850206958157"
"8240000560","Stephenstown (Dublin), Clonard Road 1","53.6076607199137","-6.20089551174047"
"8240000561","Naul, Delvin Banks Estate 1","53.5868962005931","-6.28830055506717"
"8240000562","Naul, Delvin Banks Estate 2","53.5867998564855","-6.28910501922239"
"8240000563","Cabinhill (Dublin), Nag's Head Cross Roads 1","53.5582992969674","-6.27220185219323"
"8240000564","Cabinhill (Dublin), Nag's Head Cross Roads 2","53.5586002970993","-6.27250658139164"
"8240000565","Ellistown (Dublin), New Road Estate 1","53.5365974592084","-6.27059634764173"
"8240000566","Ellistown (Dublin), New Road Estate 2","53.5367981285929","-6.27079939066453"
"8240000567","Ballyboughal, Ballyboughal Village Centre 1","53.5221747450524","-6.26768492282262"
"8240000568","Ballyboughal, Ballyboughal Village Centre 2","53.5214964661565","-6.26739588179518"
"8240000569","Murragh (Dublin), Beechtree Nursing Home 1","53.5248996557917","-6.2865029803147"
"8240000570","Westpalstown, Newtown Lane 1","53.5276992326495","-6.30129298362304"
"8240000571","Westpalstown, Newtown Lane 2","53.5277982565627","-6.30130410433021"
"8240000572","Oldtown, The Orchard 1","53.5279010406998","-6.3130052346007"
"8240000573","Oldtown, The Orchard 2","53.5279769918023","-6.312655281569"
"8240003387","Balbriggan, Chapel Street 1","53.6097971595156","-6.18880452928762"
"8240B1007101","Balbriggan (Apache Pizza) 1 2","53.6112615172544","-6.18579460059915"
"8240B109321","Ashfield Green 1","53.6135043597498","-6.19443481944903"
"8240B1328001","Garristown, Baldwinstown ->W","53.5642686466809","-6.35385979444216"
"8240B1330502","Naul, Springhill ->N","53.5529739814181","-6.32494255506273"
"8240B133051","Naul, Springhill ->NE","53.5530002957945","-6.32489623666279"
"8240B133101","Oldtown, Browns Cross ->N","53.5369037888474","-6.32429465410956"
"8240B1347401","Balbriggan, Bus Stop at Train Station ->SE3","53.6116654622727","-6.18279977739387"
"8240B1347402","Balbriggan, Bus Stop at Train Station ->SE1","53.6116654622727","-6.18279977739387"
"8240B1348601","Millfield Shopping Centre 2","53.6069812860447","-6.19874819551651"
"8240B1348602","Millfield Shopping Centre 1","53.6069810586648","-6.1987330926781"
"8240B1371101","Balbriggan (St Peter and Paul Church) 1 2","53.6039601928705","-6.1844000029904"
"8240DB003679","Swords, Main Street Swords ->N1","53.4590816825632","-6.22013572290445"
"8240DB003682","Knocksedan, Glasmore Park ->NW","53.4620240338808","-6.2312480521744"
"8240DB003686","Broadmeadow, Rathbeale Crescent ->SE","53.4619183810104","-6.23018312491813"
"8240DB003689","Swords, Fingal County Council ->S","53.4589359455179","-6.22000628107609"
"8240DB003690","Swords, Swords Village ->S","53.4569564215003","-6.22106793165695"
"8240DB003810","Balbriggan, Balbriggan Bank Of Ireland ->S","53.6071189241255","-6.1834786261749"
"8240DB003864","Broadmeadow, Abbylea Avenue ->SE","53.4639991345891","-6.23413306202705"
"8240DB003865","Knocksedan, Glen Ellan Walk ->NW","53.4660910636253","-6.2376310489107"
"8240DB003884","Broadmeadow, Pine Grove Park ->SE","53.4646015443358","-6.23475571196158"
"8240DB004330","Swords, Pavilions Shopping Centre ->N","53.4547858681123","-6.21835781834232"
"8240DB004843","Abbeyvale Brackenstown Road 1","53.4596635703922","-6.25039710736407"
"8240DB004905","Swords Manor Brackenstown Road Swords 1","53.4599640065109","-6.24514383459725"
"8240DB004906","Valley View Murrough Road Swords 1","53.4606535539984","-6.24130512103706"
"8240DB004907","The Gallops Murrough Road 1","53.4625385598704","-6.23991688632496"
"8240DB004908","Lios Cian Murrough Road 2","53.4639437116856","-6.23951233424856"
"8240DB004909","Ardcian Murrough Road ->S","53.4657190317896","-6.23983047708635"
"8240DB004910","Cianlea Murrough Road Swords ->SW","53.466635355764","-6.23919005972809"
"8240DB004911","Ardcian Murrough Road 2","53.4656085800962","-6.23965430192365"
"8240DB004912","Lios Cian Murrough Road 3","53.46413955203","-6.23938373670607"
"8240DB004913","Valley View Murrough Road Swords 2","53.4616191268938","-6.24034650281363"
"8240DB004914","Knocksedan, Saint Cronan's Avenue ->SW","53.4598517742561","-6.24179006571872"
"8240DB004915","Swords Manor Brackenstown Road Swords 3","53.4598629874279","-6.24499740034952"
"8240DB004957","Knocksedan, Abbeyvale Estate ->E","53.4596261516832","-6.25091068551709"
"8240DB005075","Knocksedan, Rathbeale Road ->NW","53.4596633989678","-6.22359026293873"
"8240DB005076","Broadmeadow, Rathbeale Rd (Brackenstown Ave) ->SE1","53.4612534067934","-6.22837339300715"
"8240DB005077","Commons West (Dublin), Brackenstown Avenue 2","53.4610751988265","-6.22726633313049"
"8240DB007654","Knocksedan, Knocksedan 1","53.4548600671794","-6.26429764085561"
"826000005","The Castle Inn, Leinster Street 4","52.9922500509333","-6.98419921155113"
"826000007","Kilcullen, The Hideout 1","53.1301973594919","-6.7459943667636"
"826000008","Kilcullen, The Hideout 2","53.1301325754906","-6.74581693085559"
"826000009","Kildare Village 1","53.1541191680634","-6.91985859060761"
"826000034","Kilberry, Kilberry Cottages 1","53.0347588116986","-7.01801564612828"
"826000036","Kildangan 1","53.1051336089302","-7.01487514851289"
"826000046","Athy Health Centre 1","52.9946341297337","-6.99080192712892"
"826000050","Balitore Post Office 1","53.0096104532936","-6.81567161424165"
"826000057","Priory Restaurant 1","53.0626089738734","-6.76842870790972"
"826000058","Priory Restaurant 2","53.0626051133417","-6.7680558157317"
"826000060","Health Care Centre 1","53.0186576296384","-6.80095123970456"
"826000061","Outside Train Station 1","53.1627032727466","-6.90812804891751"
"826000062","Health Care Centre 2","53.0186920690033","-6.80080123596554"
"826000076","Moone Post Office 1","52.9746383617423","-6.81569000824854"
"826000078","Nurney 1","53.0973684774687","-6.948710489911"
"826000080","Timolin Terrace 1","52.9855777895784","-6.80949299343478"
"826000081","Timolin Terrace 2","52.9855405054614","-6.80935997750553"
"826000116","Saint Brigids Church 1","53.1552916754488","-6.91142613651787"
"826000129","Station Road 1","53.1617012131086","-6.90764503714268"
"826000130","Rathbride Abbey 1","53.1684512794616","-6.90279219928365"
"826000139","Saint Marks National School 1","53.1874603659983","-6.8137244366172"
"826000149","Athy, Doyles 1","52.9920801954805","-6.98958045897097"
"826000150","Athy, Athy Hospital 1","52.9980427597376","-6.99744122057746"
"826000151","Woodstock North, Cuainn Mhuire 1","53.0058199802521","-7.00633522702098"
"826000152","Newtownbert, Newtownbert 1","53.0191776716794","-7.01737086106344"
"826000154","Walterstown (Kildare), Walterstown 1","53.1029901371177","-6.96046071984172"
"826000155","Brallistown, Lourdesville Nursing Home 1","53.1406861254502","-6.91826747418463"
"826000157","Blackmillershill, Kildare Golf Club 1","53.1736817489614","-6.8978870142168"
"826000159","Newbridge, Greyhound Stadium 1","53.1913887949294","-6.82014060545802"
"8260B1025401","Milltown (Milltown Inn) 1 2","53.2047397520434","-6.86028087505198"
"8260B1026201","Newbridge 1 2","53.1805404723248","-6.79765285002487"
"8260B104001","Kildare, Kildare ->E","53.1568549945858","-6.91038476630495"
"8260B105761","Dunnes Stores Newbridge 1","53.1745115537605","-6.80319166153221"
"8260B105961","Naas Hospital, Ballymore Road 2","53.2125338986816","-6.66405854811303"
"8260B105971","Naas Hospital, Ballymore Road 1","53.2124542111057","-6.66416583341509"
"8260B1326902","County Kildare, Carnalway ->SW","53.1500283641732","-6.72016532282574"
"8260B1329101","Two Mile House, Two Mile House ->SW","53.1635835923968","-6.69463732893582"
"8260B1329501","Naas, Killashee ->SW","53.1945849243879","-6.67530244740506"
"8260B1341501","Castledermot, Castledermot Rs ->S2","52.9137045112868","-6.83714337573743"
"8260B136361","Killashee (Opp Killashee Hotel) 1 2","53.1946860854498","-6.67550885361631"
"8260B136371","Two Mile House (Northbound) 1 2","53.1635863777645","-6.69489148312693"
"8260B136381","Carnalway (Northbound) 1 2","53.1500472978748","-6.72025446260591"
"8260B136391","Kilcullen (Lui Na Greine) 1 2","53.1419684276599","-6.73466500844999"
"8260B136401","Kilcullen (Opp Lui Na Greine) 1 2","53.1420268760129","-6.73424475601891"
"8260B136421","Athy (C Bar Leinster Street) 1 2","52.9922230927823","-6.98419984414577"
"8260B1370001","Naas (Post Office) 1 2","53.2176468530644","-6.66395934288105"
"8260B1370301","Naas (Opposite Post Office) 1 2","53.2176089002864","-6.66378083495293"
"8260TR000145","Newbridge, Michael Murphy Ez Living YYY","53.1790418836302","-6.79966953680396"
"8270000121","Callan, Camphill Community Callan 1","52.545151104994","-7.39000207119725"
"8270B3510501","Callan, Callan ->SW1","52.5431428834123","-7.39100292346218"
"828000016","Old Post Office Portlaoise 2","53.0344596698104","-7.30290527184246"
"828000017","Old Post Office Portlaoise 1","53.0344857562676","-7.30275575379041"
"828000032","Borris in Ossory 1","52.9391777395003","-7.63053769669947"
"828000033","Borris in Ossory 2","52.9393131509251","-7.63072994146222"
"828000035","Pike Of Rushall, Pike of Rushall 1","52.9528509283423","-7.55293350244543"
"828000037","Pike Of Rushall, Pike of Rushall 2","52.952724491047","-7.55277111061169"
"828000038","Mountmellick, MDA 1","53.1150175112249","-7.32838602863382"
"828000055","Centrepoint Portlaoise 2","53.0338429354265","-7.3096543164227"
"828000167","Market Square Portarlington 1","53.1617584100269","-7.18930363190038"
"828000187","Mountrath, Mountrath 1","53.0000256755284","-7.47567848816772"
"828000188","Mountrath, Mountrath 2","52.9998366841931","-7.47562118708591"
"828000230","Kilminchy Avenue 4","53.0444014923718","-7.26435838096503"
"828000280","Mountmellick, College Avenue 1","53.117928008218","-7.32813152906846"
"828000281","Irishtown (Laois), Derrycappagh House 1","53.1119473582869","-7.32583491755097"
"828000282","Irishtown (Laois), Irishtown 1","53.1092755384092","-7.32856510663556"
"828000283","Ballacollig, Kirwan Park 1","53.1184511882825","-7.32054942419993"
"828000284","Mountmellick, SuperValu 1","53.1139290311618","-7.32029209864786"
"828000285","Castletown (Laois), Castletown 1","52.9776049498144","-7.49937191014782"
"828000286","Castletown (Laois), Castletown 2","52.977960167765","-7.49835527622897"
"8280B1315601","Market Street Mountmellick 3","53.1174001172241","-7.32695962681693"
"8280B1552501","Laois Shopping Centre ->E","53.0329101330151","-7.2976971337215"
"8280B1553101","Hospital 2","53.0389838030673","-7.2749034369812"
"8280B1553201","Laois Shopping Centre 2","53.0328204415618","-7.29620767438964"
"8280B1554101","Laois Shopping Centre 1","53.0329283705077","-7.29774156502399"
"8280B1554501","Hospital 1","53.0389778144038","-7.27539561066015"
"8280B1555601","Mountrath (Bridge St northbound stop) 1 2","52.9998913947972","-7.47579929639166"
"8280PB001308","Portlaoise, Centrepoint Portlaoise ->E","53.0338879556833","-7.30966850693363"
"8280PB001331","Portlaoise, Outside Train Station ->NW","53.0365347068147","-7.30118692498116"
"8280PB001341","Portlaoise, Outside Train Station ->SE","53.0365972635609","-7.30112627168366"
"8280PB001353","Kilminchy Avenue 1","53.0443741635965","-7.26429919352209"
"829000003","Killetter Cross 1","53.7646998613932","-7.72655604746126"
"829000004","Killetter Cross 2","53.7645826948825","-7.72640513982788"
"829000005","Esker Cross 1","53.7740953071821","-7.69148188007848"
"829000006","Willsbrook 1","53.7665279228982","-7.56387138556389"
"829000007","Esker Cross 2","53.7741762605914","-7.69151162716256"
"829000010","Ballinalee 1","53.7754867180857","-7.65782275332382"
"829000029","Willsbrook 2","53.7667255603956","-7.56385416961986"
"829000030","Brown's Cross 1","53.7677470183083","-7.54137960469422"
"829000031","Brown's Cross 2","53.7678368783208","-7.54137862536648"
"829000102","Longford, St. Mel's Cathedral Car Park 1","53.7266544185513","-7.79555312150293"
"8290B1049501","Granard (Harpers Lodge) 1 2","53.7773162297975","-7.49627635834485"
"8290B1357401","Courthouse 2","53.7286137025672","-7.80104448804644"
"8290B1357701","Longford, Outside Train Station ->W3","53.7243906981855","-7.79604897864112"
"8290B1357704","Longford, Outside Train Station ->W1","53.7243906466056","-7.79601867409445"
"8290B1358001","Courthouse 1","53.7285422898624","-7.8013327490812"
"8290B1359002","Granard 1","53.7775408779791","-7.49627366829851"
"8290B152151","Ballymahon, Ballymahon ->SE2","53.5652122182364","-7.76617174810088"
"8290B5575601","Longford, Ballymacormack Cross ->S","53.7070906954801","-7.82359266699614"
"8290B5575602","Longford, Ballymacormack Cross ->N","53.7071177882635","-7.82368343078501"
"8290B5577302","Keenagh, Keenagh ->NW","53.6229914836524","-7.81502506083807"
"8290B557751","Keenagh (Southbound) 1 2","53.6238555122361","-7.81588291554503"
"8290B5611201","County Longford, Ennybegs ->SE1","53.7763362063074","-7.72614665339562"
"8290B561141","Ennybegs (Opp St Marys Church) 1","53.7763992134628","-7.72619175668432"
"831000001","Gormanston, Gormanston College 1","53.6351596393583","-6.23382675955752"
"831000024","Stamullen (Dublin), Gormanston Community Centre 1","53.6333936992697","-6.25682525486811"
"831000102","Garda Station 1","53.5111960477453","-6.39750275946947"
"831000107","Ashbourne, Main Street Upper 2","53.5166036754284","-6.40669342765669"
"831000108","Ashbourne, Main Street Upper 1","53.5166010634987","-6.40649748772281"
"831000109","Ashbourne, Main Street 2","53.5138986387259","-6.40199983740441"
"831000110","Ashbourne, Main Street 1","53.513187582903","-6.40057904501449"
"831000111","Ashbourne Business Park, Ashbourne Business Park 2","53.5243022216881","-6.41180404115234"
"831000112","Ashbourne Business Park, Ashbourne Business Park 1","53.524501254056","-6.41190217293946"
"831000115","Ashbourne Fire Station 2","53.5214181819827","-6.41120310325995"
"831000116","Ashbourne Fire Station 1","53.5214150081024","-6.41164058675632"
"831000119","Stamullen, Church, Main Street 1","53.627264059338","-6.26424464295981"
"831000120","Stamullen, Mountain View 1","53.6262736863077","-6.2703329927026"
"831000121","Garda Station 2","53.511297488995","-6.39769494546604"
"831000122","Killyon (Meath), Church 1","53.4829858795925","-6.98113154256503"
"831000123","Killyon (Meath), Opposite Church 1","53.4829409531046","-6.9811326191034"
"8310B1030601","Trim (Opp Boyne Bridge By Pass) 1 2","53.5531445443996","-6.7853791924234"
"8310B1031301","Kildalkey (Church) 1 2","53.570838402408","-6.9052813099305"
"8310B103141","Kildalkey, Kildalkey (Opp Church) 1","53.5710283186237","-6.90639367872729"
"8310B1320301","Ballivor, Ballivor ->W","53.5329019050848","-6.96355172745433"
"8310B1320302","Ballivor, Ballivor ->E","53.5329480074067","-6.96368636361048"
"8310B1328701","Longwood (Spar) 1 2","53.4548214291227","-6.92487543469716"
"8310B1328702","Longwood (Spar) 1 3","53.4550517919432","-6.92450824548271"
"8310B1358801","Trim, Trim ->NE1","53.5531477619168","-6.78569603481431"
"832000021","Clara 1","53.3441136708565","-7.61494267799826"
"832000065","Lemanaghan, Lemanaghan 1","53.2935217948871","-7.74389881691344"
"832000066","Boher (Offaly), Boher 1","53.3252020506618","-7.72421035957354"
"832000099","Pullough 1","53.2772548426971","-7.71219416464056"
"832000104","Rahan Community Centre 1","53.2823725858892","-7.61768725846766"
"832000108","Walshisland, Walsh Island 1","53.2343557851714","-7.20354102425019"
"832000110","Mount Lucas, Mount Lucas Training Centre 1","53.2844370539432","-7.19610148888324"
"8320B1359701","Tullamore, Tullamore ->NE2","53.2736850385092","-7.49313084230068"
"8320B1359702","Tullamore, Tullamore ->NE1","53.2738380033047","-7.49317401111114"
"8320B3584401","Ferbane, Ferbane ->N2","53.2696594531003","-7.82806681083317"
"8320B3598502","Ballycumber, Ballycumber ->E","53.326244978915","-7.68790703679154"
"8320B4502301","Moneygall, Moneygall ->E2","52.8798870082881","-7.95731770151962"
"833000011","Castledaly 1","53.1370321645899","-8.7141027642442"
"834000011","Outside Train Station 1","52.6720824238173","-6.29239882618741"
"834000019","Main Street 6","52.6753288018224","-6.29561443495662"
"834000020","Main Street 5","52.6754646242098","-6.29568309070515"
"834000079","Courtown Caravan Park 1","52.6439151305878","-6.2368521106468"
"834000080","Riverchapel Roundabout 1","52.64094763957","-6.23677936813699"
"834000081","Glen Aoibheann 1","52.6366944102056","-6.23367022559466"
"834000128","Sea Scapes 1","52.6218478456396","-6.2320968134747"
"834000133","Belfield Road GAA Enniscorthy 1","52.5048295058101","-6.57773235778634"
"834000134","Belfield Road GAA Enniscorthy 2","52.5045481250435","-6.57750575061509"
"834000161","Maldron Hotel Wexford 2","52.3382403323014","-6.51314110188979"
"834000171","Summerhill Road Wexford 2","52.3333186255965","-6.47540368944291"
"834000433","Pollshone Junction 1","52.6173941989638","-6.23363504638302"
"834000434","Pollshone Junction 2","52.6173291111389","-6.23348997531055"
"834000435","Jimmyz 1","52.6388236747321","-6.23540193288356"
"834000436","Jimmyz 2","52.6388672734772","-6.23531151950463"
"834000462","The Folly, Windmill Lane Therapeutic Centre  1","52.3366524885643","-6.45731217506895"
"834000472","Ryland, Ryland Wood 1","52.6414388408194","-6.65128048635583"
"834000473","Clohamon, Slaney Foods 1","52.6367802266932","-6.62525733077493"
"834000474","Kilmyshall, Kilmyshall 1","52.6256546447191","-6.65206126991288"
"834000475","Craanrue, Castledockrell 1","52.5830583538605","-6.60635308022715"
"834000476","Marshalstown, Marshalstown 1","52.547115395356","-6.59522431413065"
"834000478","Enniscorthy, Market Square 1","52.5018967483576","-6.56859144969755"
"8340B136281","Bunclody (Market Square Northbound) 1 2","52.655030553337","-6.65214813689949"
"8340B1363001","Newtown Road (Hospital) Wexford 2","52.3419098744929","-6.48359128064339"
"8340B1406401","Kilrane 1","52.2420312150292","-6.35485312411135"
"8340B3004001","Wexford, Wexford Trinity Street ->SE2","52.3348112454546","-6.45605555934969"
"8340B3004201","New Ross, New Ross Irishtown ->S","52.3969709193","-6.93488591757046"
"8340B3004202","New Ross, New Ross Irishtown ->N","52.3968646658156","-6.93506480714757"
"8340B3303501","Carrick on Bannow 1 2","52.2388304956956","-6.73214900869845"
"8340B3305201","Clongeen (Westbound) 1 1","52.296741436183","-6.7698320886806"
"8340B330621","Taghmon (Pharmacy Main Street) 1 2","52.3229014450809","-6.65457765399447"
"8340B330641","Courtown Harbour 2","52.6449118174922","-6.23014693514187"
"8340B3307201","Foulksmills (Opposite Pub) 1 2","52.3142194787961","-6.75300836949967"
"8340B3307202","Foulksmills (Opposite Pub) 1 3","52.3140939792444","-6.75304123110103"
"8340B3315901","Kilrane 2","52.2422284356618","-6.35674954744099"
"8340B331641","Tagoat (Opp Cushens Bar) 1 2","52.2435984388392","-6.3902785541731"
"8340B3395401","Wellington Bridge (Opp Tir na Nog Pub) 1 2","52.2667793486748","-6.7500031150195"
"8340B3512001","Bunclody, Bunclody ->N","52.6551723040891","-6.65196640302707"
"8340B3512501","Clonroche, Clonroche ->SW","52.4498543050493","-6.71694641505585"
"8340B3512502","Clonroche, Clonroche ->NE","52.4497945937299","-6.71724239376139"
"8340B355461","New Ross (The Quay) 1 2","52.3948242819283","-6.94610471969941"
"8340B355471","New Ross (Supervalu The Quay) 1 2","52.3943416109022","-6.94641008657818"
"8340B3555001","Rosslare Harbour, Rosslare Harbour ->NE3","52.2527493619858","-6.3351658130792"
"8340B3555201","Enniscorthy, Enniscorthy Templeshannon ->SE2","52.5014854183003","-6.56431848139392"
"8340B3555202","Enniscorthy, Enniscorthy Templeshannon ->SE1","52.5016142507791","-6.56456468866196"
"8340B355541","Gorey (Rail Station) 1","52.6720293719535","-6.29246004502699"
"8340B3555701","Newtown Road (Hospital) Wexford 1","52.3421126349408","-6.48398061511015"
"8340LL10343","Palace, Palace Crossroads 1","52.4291380931882","-6.81366141092715"
"8340LL10345","Commadore Barry Park 1","52.2657613354704","-6.39056007392595"
"8340LL10346","Commadore Barry Park 2","52.2654590389103","-6.39080544758007"
"8340LL10347","Rosslare, Garda Station 2","52.2700248870634","-6.38482281058238"
"8340LL103478","Rosslare, Garda Station 1","52.2701382852172","-6.38456958496611"
"8340LL10350","Rosslare Strand P.O. 2","52.2731495441307","-6.38652632347075"
"8340LL10352","Rosslare, Strand Road Rosslare 2","52.2795083988558","-6.39204057731336"
"8340LL10354","Grange Road 1","52.2728530529692","-6.39842149983832"
"8340LL10355","Wexford Road Rounabout 1","52.2649380280639","-6.39479484503688"
"8340LL10357","Killinick 2","52.2573908650253","-6.45436598697116"
"8340LL10358","Killinick 1","52.2572941354183","-6.45453048684696"
"8340LL10359","Drinagh (Wexford), IDA Business Park 2","52.307584692347","-6.45758971374683"
"8340LL10360","Drinagh (Wexford), IDA Business Park 1","52.3087454978381","-6.45699206281292"
"8340LL10363","Crescent Quay 1","52.3376850586628","-6.45928675721972"
"8340LL10365","Redmond Square 3 2","52.3426966434438","-6.46446962632952"
"8340LL10370","Barntown 1","52.3393422887352","-6.5644398928016"
"8340LL10375","Tagoat, Pugin Park Tagoat ->N2","52.2447043949056","-6.38897907506199"
"8340PB003206","The Faythe Wexford 2","52.3327681977407","-6.45724191596707"
"834LL10364","Crescent Quay 2","52.3376607812816","-6.45949305563905"
"834LL10367","The Folly, Wexford Campus 1","52.3344644244053","-6.46877554759779"
"834LL10368","The Folly, Wexford Campus 2","52.3344072804044","-6.46852805957858"
"834LL10369","Wellingtonbridge (Wexford), Wallace's Supermarket 1","52.2662516056487","-6.74855283159385"
"834LL10373","Newlands (Wexford), Saint Peter's College 1","52.3349826929047","-6.47478882959858"
"835000012","Annamoe Bridge 1","53.0313507923956","-6.25318862760637"
"835000022","Glendalough Visitor Centre 2","53.0105200515069","-6.3234482300178"
"835000088","Wicklow, Wicklow County Council 1","52.9854655129934","-6.05147521510684"
"835000091","Wicklow, Main Street 1","52.9805425914747","-6.04235872917406"
"835000093","Wicklow, Post Office 1","52.9800036790031","-6.0396576671271"
"835000094","Roundwood, Byrne & Woods 1","53.0616265861304","-6.22421121619532"
"8350B102391","Ashford House 2","53.0129785375108","-6.10755776058001"
"8350B1024101","Rathnew, Rathnew ->E1","52.9948123288623","-6.08065687599933"
"8350B1024201","Lidl 1","52.9861108452396","-6.05630197733608"
"8350B1024301","Community College 1","52.9822577174222","-6.04990680911025"
"8350B1060801","Tesco 1","52.9831837711602","-6.05156302445067"
"8350B1060901","St Ernan's School 1","52.993969836729","-6.07802754202438"
"8350B1061501","Ashford House 1","53.0123672763428","-6.10812105530739"
"8350B1355501","Wicklow, Wicklow Grand Hotel ->W","52.9808574116926","-6.04728908343936"
"8350B1355601","Wicklow Gaol 1 2","52.9789660139084","-6.03669632249185"
"8350B19301","Wicklow, Outside Train Station ->S2","52.9879932358256","-6.05213600413305"
"838000006","Creamery 1","52.0806728383836","-8.2281663067899"
"838000018","Conna 1","52.0926269110141","-8.10978662208357"
"838000019","Conna 2","52.0926538502956","-8.10981587515819"
"838000256","Castlelyons 1","52.0888950875023","-8.23405974267139"
"838000257","Castlelyons 2","52.0889673162247","-8.23389960532279"
"838000260","Curraglass 1","52.0938019923109","-8.04510957359783"
"838000261","Curraglass 2","52.0939278582991","-8.0450513249954"
"838000282","Esker Hills, Portlaoise Leisure Centre 1","53.037892995054","-7.29529006267098"
"838000309","Milford 1","52.3407385528352","-8.85594220239329"
"838000310","Milford 2","52.3408460833764","-8.85598830518045"
"838000323","Kilbrittain Hall 1","51.6736698400576","-8.6917961860972"
"838000397","Kilbrittain, Hickey's Shop 1","51.673520431849","-8.68661772415965"
"838000398","Timoleague, Post Office 1","51.6438868803511","-8.76571295616201"
"838000399","Ring (Cork), Kitty Mc's Pub 1","51.6127731022216","-8.8493998760309"
"838000400","Bandon, Grange Tavern 1","51.6044879359959","-8.78430864232145"
"838000401","Lislevane, Post Office 1","51.6080378739144","-8.75568177494648"
"838000404","Old Head, Signal Tower 1","51.6202860378933","-8.54180191472159"
"838000405","Garrylucas, Garrylucas 1","51.641990547618","-8.57140546754851"
"8380B1553501","Mitchelstown - New Square 3","52.266526041001","-8.26975968007898"
"8380B1553801","Mitchelstown - New Square 1","52.2663096144229","-8.27006602617783"
"8380B215261","Bandon (Glaslynn Rd Kellehers Eastbound) 1 2","51.7459398734274","-8.73430286800424"
"8380B215271","Innishannon (Wolfe & Co Solicitors) 1 2","51.76486215598","-8.65694080439887"
"8380B215351","Clonakilty (West Cork Business Park) 1 2","51.6443634585022","-8.8690200314842"
"8380B215381","Clonakilty (Croppy Quay) 1 2","51.6219687914223","-8.8860096585735"
"8380B215841","Courtmacsherry (Opp Pier) 1 2","51.6352070578535","-8.71069909510248"
"8380B2306602","Glanworth, Glanworth ->N","52.1864672501974","-8.3566107552067"
"8380B2307702","Kildorrery, Kildorrery ->E1","52.2462703856652","-8.42664854319838"
"8380B2324901","Inishannon, Innishannon ->SW","51.7647088614549","-8.65702550557767"
"8380B2340002","Ballinspittle, Speckled Door Bar ->NE","51.6397591791845","-8.55112160911011"
"8380B2360601","Bandon, Bandon ->W2","51.7460336897071","-8.73223349300737"
"8380B2360603","Bandon, Bandon ->W1","51.7459965184326","-8.73386933303804"
"8380B2360703","Clonakilty, Clonakilty ->W2","51.6232544777043","-8.89074305127309"
"8380B2361201","Ballinspittle, Garrettstown ->SE2","51.6441086343851","-8.57945139214538"
"8380B2361202","Ballinspittle, Garrettstown ->SE1","51.644189607279","-8.57943797512528"
"8380B236381","Kinsale (Pier Road Amenity Area) 1 2","51.7044947495502","-8.52122035583628"
"8380B237561","Fermoy (Cork Rd Duntaheen Rd Jctn) 1 2","52.1350215659516","-8.28123481397127"
"8380B237571","Fermoy (Barrack Hill Opp Aldi) 1 2","52.1459327036957","-8.27797225552159"
"8380B237581","Rock Mills (Opp Equestrian Ctr) 1 2","52.2227419186472","-8.41291383044745"
"8380B237601","Kildorrery (Southbound) 1 2","52.2461621549436","-8.42675001223678"
"8380B237611","Rock Mills (Southbound) 1 2","52.2226872712358","-8.41311822970396"
"8380B237631","Glanworth (Southbound) 1 2","52.1870329079684","-8.35682002233167"
"8380B237641","Fermoy (Dublin Rd Wolfe Tone Pk) 1 2","52.145170559368","-8.27716392304989"
"8380B237651","Fermoy (Cork Rd Opp Ross Pharm) 1 2","52.1354710688279","-8.28120842963149"
"8380B247191","Kinsale, Town Car Park 1","51.7056067601613","-8.52182635309584"
"8380B2552001","Fermoy, Fermoy ->W2","52.1377626340631","-8.27765844720336"
"8380B2552003","Fermoy, Fermoy ->E","52.1378291898934","-8.27611038439824"
"8380B3353201","Charleville, Charleville ->SE","52.3543968953996","-8.68266072869163"
"8380PB000178","Charleville, Charleville ->NW","52.3538604246785","-8.68216803568204"
"839000024","Caherdaniel 1","51.7694176077003","-10.0993334769963"
"839000057","Ballyfinane Crossroads 1","52.1963768642832","-9.63128915177384"
"839000096","Currans Community Centre 1","52.1976598000584","-9.54945631948584"
"839000097","Community Centre 1","52.1863407518455","-9.4959286872035"
"839000098","Ballyfinane Crossroads 2","52.1963823224639","-9.63089437175475"
"839000107","Clash (IT South Campus) 1","52.2714468901834","-9.68641623401886"
"839000109","Manor Retail Park 1","52.2620433025515","-9.67762064681012"
"839000113","Knightstown 1","51.925813754538","-10.2904633628536"
"839000131","Waterville (Kerry), Teach Amergin 1","51.8309568457431","-10.1717174687054"
"839000132","Castle Cove, Castlecove 1","51.7791329001554","-10.0356616536465"
"839000133","Poulawaddra, Farmers Bridge 1","52.2419463119032","-9.65827932210708"
"839000134","Tralee, Denny Street 1","52.2682441855624","-9.70535778663272"
"8390B3328001","Duagh, Duagh ->NW","52.4153882464153","-9.39136798509374"
"8390B333161","Firies (OSullivans Shop) 1 2","52.1702852514639","-9.59874002744813"
"8390B335541","Listowel, Arms Hotel 1","52.4451335486878","-9.48660172953037"
"8390B335761","Aherns Pharmacy ->N","52.1721954211163","-9.55060358751827"
"8390B336001","Duagh, Duagh ->SE","52.4154347313841","-9.39123714034712"
"8390B350001","Farranfore, Kerry Airport ->SW2","52.181560841996","-9.53699281585161"
"8390B3507001","Killorglin, Killorglin ->NE","52.1068501438304","-9.78861611265202"
"8390B350761","Glenbeigh (Towers Hotel) 1 2","52.0559573765409","-9.94088914827583"
"8390B3577001","Aherns Pharmacy ->S","52.1723577350529","-9.55056536944553"
"8390B5331801","Tralee, Killerisk Manor Kerry ->NE1","52.2640735856363","-9.68150661580425"
"8390B6350601","Tralee, Tralee Bus Station ->E5","52.270772635085","-9.69833323352074"
"8390B6350701","Tralee, Tralee General Hospital ->SE1","52.267360970714","-9.68422448051547"
"8390B6350703","Tralee, Tralee General Hospital ->SE2","52.2674242813673","-9.68419757548478"
"8390B6356502","The Square Listowel 1","52.4446163533522","-9.48555456244926"
"8390B6372901","Cahersiveen, Cahersiveen ->N","51.9471344718097","-10.2208567667052"
"8390B6372902","Cahersiveen, Cahersiveen ->SW","51.9470870915447","-10.2209853645158"
"8390B6373202","Waterville, Waterville ->S","51.8276061460856","-10.1720495932436"
"8390B6375201","Firies (OSullivans Shop) 1 1","52.1704000784084","-9.598890347302"
"8390B6375301","Currow, Currow Church ->N","52.1854067028797","-9.49657008849334"
"8390PB000921","Tralee, Institute of Technology Tralee ->SE","52.2851657438808","-9.67499074443955"
"8390PB002327","Portmagee, The Bridge Bar Portmagee ->SE","51.8859392174313","-10.3631881283046"
"8400B6055501","Limerick, Limerick Arthur's Quay ->N2","52.665300715543","-8.62636453624627"
"841000039","Dromcollogher 1","52.3396564464348","-8.90817927795947"
"841000078","Dromcollogher 2","52.3397738456153","-8.90810830749898"
"8410B3356702","Courtney Lodge Hotel ->E","52.4492512188612","-9.05083934160189"
"8410B335731","Church of the Assumption 1","52.3865813888976","-9.29540974232219"
"8410B3361201","Courtney Lodge Hotel 1","52.4492690617292","-9.05085447796415"
"8410B6076301","Stables University of Limerick 1","52.6727809928801","-8.5707570428388"
"8410B6356601","Church of the Assumption 2","52.3865488244302","-9.29510027499098"
"842000001","Nenagh, Springfield Retail Park 1","52.8611666888211","-8.21545816471161"
"842000006","Tipperary Institute, LIT Tipperary 1","52.6858631970908","-7.82507360209489"
"842000007","Thurles, Garda Station, Thurles 1","52.6756509397645","-7.81205748078953"
"842000052","Church Street Toomevara 1","52.8501310489292","-8.03612078339017"
"842000085","Littleton 1","52.6391729521916","-7.73847332908922"
"842000086","Littleton 2","52.6390918653348","-7.73838516457786"
"842000090","Roscrea, Rosemary Square Roscrea 1","52.9529458269811","-7.79858048996245"
"842000129","Nenagh, Nenagh 4","52.8642692873484","-8.19894432308927"
"842000138","Liberty Square Thurles 6","52.6791057415796","-7.81423130081202"
"8420B155531","Damer Court Hotel, Damer Court Hotel ->W1","52.9549749709565","-7.79738049467336"
"8420B3349801","Rearcross (Church) 1 3","52.6864553957628","-8.23750799597757"
"8420B3360901","Tipperary North, Newport Tipperary ->SE","52.7113843931605","-8.40737439376614"
"8420B3382401","Horse and Jockey 3","52.6158270116805","-7.77600211439155"
"8420B3382402","Horse and Jockey 4","52.6156652282405","-7.77600294008002"
"8420B4502201","Toomevara (Kinanes Fitted Kitchens) 1 2","52.8500322654554","-8.03585347055153"
"8420B4552901","Damer Court Hotel, Damer Court Hotel ->W2","52.9551274532966","-7.79720119621036"
"8420PB002885","Liberty Square Thurles 1","52.6791057415796","-7.81423130081202"
"8420TR000216","Thurles, The Arch Bar YYY","52.6791855413698","-7.81353591746074"
"8420TR000218","Thurles, Thurles Train Station Car Park YYY","52.6766903655531","-7.82163521899878"
"843000014","Glengoole 2","52.615931981694","-7.63992463072875"
"843000050","Cahir 1","52.3745468054432","-7.92562905217655"
"843000055","Bansha 1","52.4475026219901","-8.0634756241261"
"843000149","New Inn 1","52.4408277871026","-7.88236352665185"
"843000161","The Commons 1","52.6260784478942","-7.54548831368973"
"843000162","The Commons 2","52.6260435731543","-7.54576931201464"
"843000165","Ballingarry 2","52.5864534341956","-7.54176636710354"
"843000185","Ballingarry 1","52.5863191310495","-7.54190058095872"
"843000188","Killenaule, Castlequarter Estate 1","52.5717027996965","-7.6648786983571"
"843000191","Cashel (Tipperary), Centenary 1","52.5115914544394","-7.89083699683169"
"843000192","Killenaule, River Street 1","52.5687637064241","-7.67130306303572"
"843000194","Tipperary, Tipperary (Dunnes Stores) 1","52.4781816427052","-8.17661886333536"
"843000195","Golden, Golden GAA 1","52.4991370751223","-7.97755500960793"
"843000196","Thomastown (South Tipperary), O'Neills Bistro 1","52.4930244810346","-8.02543118354302"
"843000197","Kilfeakle, Kilfeakle Church 1","52.4878337029059","-8.06209072394251"
"8430B2552302","Main Street, Cashel 3","52.5171337040857","-7.88713983489202"
"8430B331931","Carrick-on-Suir (Treacy Park Topaz) 1 2","52.3484975209345","-7.42305157163236"
"8430B331941","Carrick-on-Suir (Treacy Park Op Topaz) 1 2","52.3483997993615","-7.42328768750575"
"8430B331951","Carrick-on-Suir (Park Side Westbound) 1 2","52.3479059982586","-7.40885138684864"
"8430B3372302","Limerick Junction, Bohercrowe ->NW","52.4946914529366","-8.20020277497484"
"8430B3510902","Mullennaglogh, Grangemockler ->N1","52.4455833340086","-7.46937081468563"
"8430B3511101","Carrick-on-Suir, Carrick On Suir Greenside ->E","52.347940040521","-7.40846931556336"
"8430B6354704","Abbey Street ->W2","52.4727204131733","-8.16149542823091"
"8430PB002918","Ballinunty, Ballynonty ->NE","52.5899182735633","-7.66683541887797"
"8430PB002919","Ballinunty, Ballynonty ->SW","52.5898821557949","-7.66677666018276"
"8430PB002933","New Birmingham, Glengoole ->SW","52.6157416646501","-7.63940935211846"
"844000049","Waterford Regional Hospital 1","52.2467972066957","-7.07844387714949"
"844000050","Waterford Regional Hospital 2","52.2468291547049","-7.07793065866433"
"8440B352051","Parnell Street (WCFE) 1 2","52.2583684735928","-7.1092290474603"
"8440B352111","WIT (Opp Main Entrance) 1 2","52.2449358629046","-7.13784848234485"
"8440B3525001","WIT (Main Entrance) 1 2","52.2450784878967","-7.13768463564497"
"8440B352541","Parnell Street (Bank of Ireland) 1 2","52.2581678360129","-7.11003871708601"
"845000025","Tramore 1","52.1622257705667","-7.14856853363071"
"845000026","Tramore 2","52.1622535776205","-7.14868493591387"
"845000039","Tallow 1","52.0947182829929","-8.00706356531035"
"845000040","Tallow 2","52.0947183034575","-8.00671330587614"
"845000079","Ballyduff 1","52.1478032645183","-8.05328811319334"
"845000127","Stradbally 1","52.131090804047","-7.46183909079428"
"845000128","Stradbally 2","52.1311987312801","-7.46185239662482"
"845000152","Mill Street 1","52.146570773765","-7.85111296605483"
"845000177","Helvick 1","52.0534161872136","-7.55175955205936"
"845000212","Ringville 1 1","52.0482270307366","-7.59318693674577"
"845000213","Old Parish Road, Community Hall 1","52.0064754896842","-7.63797582337679"
"845000215","Ring (Waterford), Post Office 1","52.0477675283069","-7.58007006687687"
"845000216","Baile Na Ngall, Playground 1","52.0457913899755","-7.56803233579492"
"845000217","Annestown, Sports Grounds 1","52.1414619746824","-7.27805636660893"
"845000219","Dunhill, Harney's 1","52.1729131149526","-7.26190392887729"
"845000221","Kill (Waterford), Dunphy's 1","52.1772140579999","-7.33518829107332"
"845000222","Bunmahon, Playground 1","52.1405620803621","-7.36708583082787"
"845000225","Ballinroad, Lord Maguires Pub 1","52.1050974951852","-7.57467078379512"
"8450B2163201","Dungarvan (Davitts Quay) 1 1","52.091475294971","-7.62091475352959"
"8450B244591","Ardmore (Opp School) 1 2","51.9517673244869","-7.7317257795497"
"8450B244611","Ardmore (School) 1 2","51.9516494729153","-7.73129005205694"
"8450B2527001","Kilmeaden 1 2","52.232526532554","-7.24194265134894"
"8450B2527002","Kilmeaden 1 3","52.2322441479039","-7.24136188090436"
"8450B2550601","Lismore (O'Dowd's) 1 2","52.1368214838576","-7.93387003944853"
"8450B3301001","Ardmore (Waterford), Ardmore ->E2","51.950868792722","-7.72410828255916"
"8450B3301002","Ardmore (Waterford), Ardmore ->E1","51.9509493523374","-7.72396231351577"
"8450B3329001","Priests Road 1 2","52.1633517961094","-7.15515391733173"
"8450B3329002","Priests Road 1 3","52.1633339252783","-7.15516887273633"
"8450B353111","Ribh Road (Opp Clairin Wood) 1 2","52.1653945868424","-7.16430972491045"
"8450B3561701","Dungarvan (Davitts Quay) 1 2","52.0917365754635","-7.62110225140137"
"8450PB003564","County Waterford, Whitfield Clinic ->NE","52.2408009827123","-7.17302647886263"
"8450PB003566","County Waterford, Whitfield Clinic ->SW","52.2407646217436","-7.17296858524883"
"847000009","Beatty's Jewellers 1","53.1988672934352","-8.56658584626602"
"847000010","Beatty's Jewellers 2","53.198658534667","-8.5670171231167"
"847000515","Thoorballylee, Co. Galway 1","53.1037446939941","-8.77415234290269"
"847000689","Kilchreest 2","53.1784019131533","-8.6528868874701"
"847000690","Ballinasloe, Train Station 1","53.3366849121759","-8.23948320751321"
"847000691","Loughrea, Intero Office 1","53.2004459387157","-8.56534942263479"
"847000692","Loughrea, Barrack Street 1","53.1976223456387","-8.56945790292631"
"8470B150701","Ballinasloe (Pauls Pub Dunlo St) 1 2","53.3287813877359","-8.22298593717852"
"8470B3344501","Laurencetown, Laurencetown Galway ->W","53.2363820952501","-8.17684791469582"
"8470B3344502","Laurencetown, Laurencetown Galway ->E","53.2366157363316","-8.17686385723097"
"8470B5321901","Ballinasloe, Portiuncula Hospital ->S","53.3267126608814","-8.23328780512474"
"8470B5321902","Ballinasloe, Portiuncula Hospital ->N","53.326838183644","-8.23343860169471"
"8470B5328701","Portumna, Green Door Cross ->S","53.0973311044988","-8.22525144443197"
"8470B5328702","Portumna, Green Door Cross ->N","53.0973122249494","-8.22572914334787"
"8470B5554201","Ballinasloe, Ballinasloe Dunlo Street ->SW2","53.3287634700683","-8.22295582003138"
"8470B6353502","Market Square Gort ->N1","53.0670967332309","-8.81930276818735"
"8470B6353504","Market Square Gort ->S1","53.0672064191254","-8.81903626907357"
"848000007","The Square 1","54.0541272225589","-7.79587300319241"
"848000008","The Square 2","54.0543877070991","-7.79581063738967"
"848000012","Gorvagh 1","53.9802534580894","-7.85797692397774"
"848000013","Tullaghan 1","54.4681388300445","-8.32954348418441"
"848000018","Derryoughter 1","53.9209125901357","-7.99187068364215"
"8480B1401101","Kinlough (McGowans Spar) 1 2","54.4472344504037","-8.28543406549837"
"8480B556261","Carrick-on-Shannon, Carrick On Shannon Coffee Shop ->E","53.9431527767147","-8.09362825938234"
"8480B556341","Outside Train Station 2","53.8592744447415","-7.91558852035877"
"8480B556351","Outside Train Station 1","53.8594452882493","-7.91574018775614"
"8480B5572001","Newtown Forbes, Fenagh ->W","54.0201477823669","-7.8343411794139"
"8480B557221","Newtown Forbes, Fenagh ->E","54.0202282553988","-7.83405092540973"
"8480B5578001","Leitrim, Leitrim Village ->N1","53.9898899781039","-8.0647607447674"
"8480B5578101","Carrick-on-Shannon, Carrick On Shannon Coffee Shop ->W","53.9434037890954","-8.09439040311322"
"8480B5578201","Jamestown (Opp Church) 2","53.9268310690962","-8.02943107040555"
"8480B5578301","Drumsna, Main Street ->SW","53.9252796601268","-8.01013986851744"
"8480B557841","Drumsna, Main Street ->NE","53.9252886279945","-8.01035302112646"
"8480B557851","Jamestown (Opp Church) 1","53.9268310466764","-8.02952242394752"
"8480B559281","Kinlough (Melvin Hotel) 1 2","54.4473427455521","-8.28523438316444"
"8480B559341","Drumshanbo (Opp Library Main St) 1 2","54.047437419284","-8.0404340212404"
"8480B559351","Ballinamore (AIB Main St) 1 2","54.0524662253512","-7.80208138134493"
"8480B571021","Mohill, Mohill ->E","53.9213786632944","-7.86725009833755"
"8480B571131","Mohill, Mohill ->W","53.9212886008948","-7.86706770099082"
"8480B6375901","Newtown Gore, Newtowngore ->NW1","54.0427408118446","-7.67648743552175"
"8480B6375902","Newtown Gore, Newtowngore ->NW2","54.0432872559557","-7.67585719570861"
"850000009","Bridge Street 1","53.9723876122699","-8.30362494973518"
"850000015","The Square Roscommon 2","53.6314474419623","-8.19092347849084"
"850000024","Roscommon, Roscommon Primary Care Centre 1","53.6270762044332","-8.18763836541444"
"850000025","Strokestown 1","53.776845671038","-8.10490925570261"
"850000026","Strokestown 2","53.7769804516713","-8.10492476312912"
"850000032","Tulsk, Cruachan Ai 1","53.778100409334","-8.25204784492649"
"850000035","Outside Train Station 1","53.9380112850535","-8.10621168477262"
"850000036","Four Mile House, Kilbride Community Centre 1","53.7024352199184","-8.20496554825334"
"850000037","Elphin, Elphin Windmill 1","53.8518315812069","-8.20540597149693"
"850000038","Elphin, Elphin Windmill 2","53.8520117192784","-8.20516367820303"
"850000039","Roscommon, Abbeytown 1","53.6252128841378","-8.19520364100977"
"850000040","Arigna, Miners Bar 1","54.0768248934545","-8.10743671033258"
"850000041","Arigna, Mining Experience Car Park 1","54.078916988117","-8.11870436158079"
"850000083","Knockvicar, Knockvicar Post Office 1","53.9994289556031","-8.19386918597514"
"850000193","Elphin, Main Street 1","53.8457868567252","-8.19277873246089"
"8500B141721","Tulsk, Tulsk ->SE","53.7794872383729","-8.25490853842491"
"8500B141731","Strokestown, Strokestown Hanly's ->N2","53.7763974924165","-8.10360342326038"
"8500B150951","Roscommon Mart Rd (Dunnes) 1 2","53.6319399991138","-8.18629921120057"
"8500B152391","Elphin (Newline Rd Opp Salon) 1 2","53.8453836022053","-8.19207786154661"
"8500B1780001","Four Mile House, Four Mile House ->S","53.7072494467383","-8.20641269010024"
"8500B1780002","Four Mile House, Four Mile House ->N","53.707203888329","-8.20677597649866"
"8500B1789201","Tulsk, Tulsk ->NW","53.7791818049035","-8.2548611710845"
"8500B5301601","Ballaghaderreen (Hanleys) 1 2","53.9018059659564","-8.57886879245165"
"8500B5557901","Boyle ->NW1","53.9734096856626","-8.30098016188147"
"8500B5558801","Strokestown, Strokestown Hanly's ->N1","53.7760829601398","-8.10361781966013"
"8500B558931","Ballyfarnon (Post Office) 1 2","54.0728346702063","-8.20478407588316"
"8500B5589501","Ballaghaderreen, Ballaghadereen ->SW","53.9016979183383","-8.57891294888061"
"8500B5591201","Ballyfarnon, Ballyfarnon ->W2","54.0728971282151","-8.20504412652694"
"8500B559211","Keadue (McCabes Pub) 1 2","54.0509332909218","-8.13725513092308"
"851000001","Connolly's Pub, Markievicz Road 1","54.2727905428878","-8.47398962685438"
"851000005","Drumcliffe 1","54.3190891728773","-8.48183788809356"
"851000012","Sligo IT (N16 Entrance) 1","54.2771735608843","-8.45822466988967"
"851000030","Ballyconnell 1","54.361272730464","-8.63249919058794"
"851000042","Ballyscannell 1","54.381342754366","-8.57953050950311"
"851000083","Mullaghmore (Sligo), Mullaghmore Village 1","54.4654168258049","-8.44929645852756"
"851000084","Bunduff (Sligo), Mermaids Cove 1","54.4543237362168","-8.41819454819734"
"851000093","Streedagh, Streedagh  1","54.3911032800474","-8.54428527563688"
"8510B1408902","Cliffony, Cliffoney ->NE","54.4298472199205","-8.45558046139048"
"8510B524871","Sligo, Ash Lane Sligo ->NW","54.276210006214","-8.46113128838139"
"8510B524881","Sligo IT (Science Building Canteen) 2","54.2776642448087","-8.45915140203214"
"8510B5523601","Sligo, Mail Coach Road Sligo ->NW","54.2658355386747","-8.47173007667576"
"8510B553811","Ballymote (Doddys) 1 2","54.087756829775","-8.51524078091668"
"8510B553891","Ballymote, Ballymote ->N1","54.0877580074775","-8.51496567204087"
"8510B5550804","Sligo, Sligo Bus Station ->E1","54.2717172283647","-8.4818071370709"
"8510B5550902","Drumcliff, Drumcliffe ->NW","54.3273116969669","-8.49933657655814"
"8510B5551301","Grange, Grange Sligo ->E","54.3930735685696","-8.52340098399302"
"8510B5552901","Sligo General Hospital 1 2","54.2732303782038","-8.46487489895925"
"8510B5555801","Carney, Carney ->N1","54.3370671893761","-8.52745623211655"
"8510B555701","Cliffony, Moneygold Po ->SW1","54.4109511830774","-8.49435992209974"
"8510B5559201","Riverstown (Opp Corner House) 1 2","54.129858287103","-8.3958256441344"
"8510B5576201","Carney, Lissadell First Gate ->NW1","54.3447463445806","-8.55430010974401"
"8510B5576401","Ballinfull, Lissadell Third Gate ->NW","54.3570748168698","-8.58285041820394"
"8510B5584201","Sligo (Markievicz Road Bus Shelter) 1 2","54.2726283260718","-8.47411058891219"
"8510B558781","Sligo General Hospital 1 1","54.2732888410159","-8.46369336246762"
"8510B558811","Collooney (Opp McKim's) 1 2","54.1838192348859","-8.49288747847061"
"8510B558831","Collooney (McKim's) 1 2","54.1838551762082","-8.49288790593639"
"8510B558961","Geevagh (Paddys Pub) 1 2","54.0991752513655","-8.25062695953273"
"8510B5591301","Geevagh, Geevagh ->NW1","54.0992561863796","-8.2505968700316"
"8510B5591701","Ballysadare, Jink's Cross ->W","54.2287252602335","-8.47159825081383"
"8510B5592301","Drumcliff, Rathcormac Sligo ->N","54.3187778206183","-8.48105037390657"
"8510B5592501","Riverstown, Riverstown Sligo ->SW","54.1298499050817","-8.39564196366399"
"8510B5594601","Cloghboley, Jordan's Cross ->NW1","54.3548572558172","-8.60618683168982"
"8510B5595901","Markievicz Road Sligo 3","54.2725208051772","-8.47403259032379"
"8510B5595902","Markievicz Road Sligo 1","54.2725208051772","-8.47403259032379"
"8510B588811","Cloghboley, Jordan's Cross ->NW2","54.355151748377","-8.6065911453732"
"8510B631401","Gurteen (Opp Centra) 1 2","53.9960226991395","-8.52267853647785"
"852000020","Redhills 1","54.1005196140693","-7.32057638843393"
"852000034","Devine's Cross 1","54.1254268738699","-7.73862819132563"
"852000035","Devine's Cross 2","54.1254175891978","-7.7384905646025"
"852000062","Cavan I.T. 1","54.0004700743011","-7.35841675232986"
"852000063","Cavan I.T. 2","53.9997739330536","-7.3593121014892"
"852000064","Cavan General Hospital 1","53.9986583233286","-7.37441353507123"
"852000065","Cavan General Hospital 2","53.9988013753812","-7.3742741211829"
"852000067","Cathedral 2","53.9945071451879","-7.36082651644162"
"852000068","Cathedral 1","53.9938342139717","-7.36101982690019"
"852000075","Ballyhaise, The Square 1","54.0469613526531","-7.31712899841419"
"852000076","Ballyhaise, Annalee Manor 1","54.0418198976055","-7.32164097706405"
"852000077","Butlers Bridge, Derragarra Inn 1","54.0427609708196","-7.37595003790848"
"852000078","Drumlark, Drumgola Wood 1","54.0169832908691","-7.36287765764923"
"852000079","The Gallops (Cavan), The Gallops 1","54.0136200161644","-7.36241028591295"
"852000080","Killynebber, Aldi 1","53.9842810136455","-7.35078296366346"
"852000081","Bellananagh, Ballinagh Health Centre 1","53.929772634441","-7.41037474708154"
"852000082","Bellananagh, Ballinagh Church 1","53.9339999584327","-7.40749789067265"
"852000083","Bellananagh, Opposite Ballinagh Church  1","53.9340345482961","-7.40722328831366"
"852000084","Moynehall, Corlurgan 1","53.9656762648912","-7.35683286246931"
"852000085","Cornagleragh, Corlurgan 1","53.9637299328677","-7.35751811706378"
"852000086","Gortnakesh, Moynehall Opp Lidl 1","53.9767972608743","-7.35443595033885"
"852000087","Creighan, Lidl 1","53.9767420380528","-7.35419289874863"
"852000088","Creighan, Breffni Stores 1","53.9837480234187","-7.35862802470002"
"852000089","Creighan, Jubliee Terrace 1","53.9846757156961","-7.35902544051227"
"852000090","Cavan, Town Centre, White Star 1","53.9905589890076","-7.36021601916517"
"852000091","Swellan, Glenlara, Swellan Upper 1","53.990904460002","-7.37119017871532"
"852000092","Swellan, Glenside Rd, Swellan Upper 1","53.9889899396543","-7.3745432023386"
"852000093","Swellan, An Dun, Lower Swellan 1","53.9886933281295","-7.38322399998835"
"852000094","Derrycramph, Drumglen Drive 1","53.9863855689181","-7.38005610663725"
"852000095","Swellan Lower, Station Lane 1","53.9842921282993","-7.37837955115093"
"852000096","Lisdaran, Cavan Hospital Main Door 1","54.0017772957984","-7.37284144675498"
"852000098","Cavan, Breffni College 1","54.0086629446262","-7.34628446174847"
"852000099","Cavan, Rocklands 1","54.004683408837","-7.34984005937076"
"852000100","Doogra (Cavan), Taffs Cross 1","54.035849464663","-7.61853208663467"
"852000101","Doogra (Cavan), Taffs Cross 2","54.0297696744604","-7.55916773430148"
"852000102","Drumalee Cross, Rocklands 1","54.0069449678742","-7.34763858203886"
"852000103","Drumalee Cross, Drumalee 1","54.0002711810017","-7.35149509559694"
"852000104","Drumalee Cross, Drumalee 1","54.0007165616155","-7.35243384904939"
"852000105","Drumcrave, Castlemanor 1","53.9973603064669","-7.34333496480663"
"8520B1015501","Cavan (Army Barracks) 1 2","53.9845722406989","-7.32694744396668"
"8520B1015601","Cavan (Cavan Crystal) 1 2","53.9832998622887","-7.34221445127841"
"8520B1015701","Cavan (Tractamotors) 1 2","53.9828274559644","-7.35620275885942"
"8520B1015901","Cavan (Opp Tractamotors) 1 2","53.9830211306906","-7.35545270001451"
"8520B1016001","Cavan (Opp Cavan Crystal) 1 2","53.9834264562669","-7.3407182963312"
"8520B1016101","Cavan (Opp Army Barracks) 1 2","53.9846705671497","-7.32685437669346"
"8520B108161","Cavan General Hospital 1 2","53.999362279054","-7.37499782114403"
"8520B1310601","Poles, Kilmore Hotel ->W","53.9859347936692","-7.32155836721969"
"8520B1358501","Cavan Institute 1 2","53.9998098745642","-7.35931154958446"
"8520B1358601","Cavan, Cavan Bus Station ->SW2","53.9902057318064","-7.36307299556219"
"8520B1358603","Cavan, Cavan Bus Station ->NE","53.990197877456","-7.3632866012455"
"8520B5573001","Killashandra, Killashandra ->NE","54.013935440857","-7.52814875171534"
"8520B557461","Killashandra (Opp Post Office) 1","54.0138908121588","-7.52822554427162"
"853000002","Portsalon 2","55.2055546463276","-7.63654043040019"
"853000004","Arryheernabin, Fanad Lighthouse 1","55.2761128040958","-7.63241826981772"
"853000007","Falcarragh 1","55.1365048371763","-8.10427318490932"
"853000009","Fintown 1","54.8682103997951","-8.12434544526414"
"853000010","Fintown 2","54.8681385547324","-8.12431406774182"
"853000011","Gweedore 1","55.0515720965213","-8.23583556328682"
"853000016","Hollyrood Hotel, Bundoran 1","54.4779680495049","-8.27990819056225"
"853000021","Bunbeg Cross Roads, Gweedore 2","55.0608901182973","-8.30055296148907"
"853000034","Donegal, Donegal Abbey Hotel 1","54.6535498067807","-8.11051758724668"
"853000043","Glencolumbkille, Glencolumbkille 1","54.7062177645545","-8.72425064453263"
"853000053","Dunlewy Post Office 1","55.0319213943039","-8.14512344124634"
"853000054","Dunlewy Post Office 2","55.0318762672131","-8.14529533650875"
"853000055","Redcastle 1","55.1595385375953","-7.13419052645924"
"853000056","Redcastle 2","55.1595195683529","-7.13404970774831"
"853000059","Main Street Moville 1","55.1890198737102","-7.03978359080287"
"853000060","Main Street Moville 2","55.1890470696374","-7.03981434453486"
"853000062","Main Street Moville 4","55.1890470696374","-7.03981434453486"
"853000077","Letterkenny Library 1","54.9484940513726","-7.73820121993028"
"853000082","Top Quigley's Point 1","55.1250030112868","-7.19600603155008"
"853000095","Molloys Supermarket Derrybeg 2","55.0781387967241","-8.28998663858364"
"853000100","Tourist Office, Bundoran 1","54.4778953821315","-8.28024714564957"
"853000111","Main Street, Ardara 1","54.7619807418561","-8.41354478216313"
"853000116","Paddy Og's Pub, Crolly 1","55.0236377761465","-8.26300762823282"
"853000117","Paddy Og's Pub, Crolly 2","55.0236377761465","-8.26300762823282"
"853000118","Paddy Og's Pub, Crolly 3","55.0236377761465","-8.26300762823282"
"853000121","The Diamond Carndonagh 1","55.2512801001365","-7.26146771794953"
"853000122","The Diamond Carndonagh 2","55.2512801001365","-7.26146771794953"
"853000124","The Diamond Carndonagh 4","55.2512975910191","-7.26138875286691"
"853000125","Main Street 1","54.9493016992671","-8.36048823305013"
"853000129","Doochary 1","54.9057785354322","-8.20739903723004"
"853000139","Ramelton 1","55.036790288298","-7.65094442093468"
"853000140","Ramelton 2","55.0367363829623","-7.65094488954855"
"853000141","Letterkenny, Pearse Road Letterkenny 1","54.9465066077271","-7.73734005650691"
"853000151","Kincasslagh 1","55.025967093392","-8.39229846687286"
"853000155","Dungloe (Sweeney's Hotel) 1","54.949992706522","-8.36075978591723"
"853000158","Portsalon 1","55.2055546463276","-7.63654043040019"
"853000161","Ballyliffan 1","55.2807780931555","-7.39231553000297"
"853000162","Ballyliffan 2","55.2806256865388","-7.39238081614326"
"853000164","Kerrykeel 1","55.1372879891774","-7.66645669702295"
"853000173","Drumfree 2","55.1972965785013","-7.39599038046248"
"853000174","Clonmany 1","55.2634881223568","-7.41347263603761"
"853000175","Clonmany 2","55.2634434311662","-7.41352049277725"
"853000187","Liscooley 1","54.8009203095229","-7.64280867620261"
"853000188","Rathmullan, Post Office 1","55.0939686247423","-7.53805846670629"
"853000216","Liscooley 2","54.8010998177339","-7.64274488322851"
"853000226","Crossroads 2","54.785764114657","-7.69244266728779"
"853000229","Portnoo 1","54.840399657146","-8.46581289235621"
"853000230","Portnoo 2","54.8406062979835","-8.46581527220253"
"853000242","Malinbeg 2","54.6682188812583","-8.78356727241682"
"853000244","Malinmore 2","54.6947227317947","-8.7741656151924"
"853000245","Letterkenny General Hospital 1","54.959775952589","-7.73283483663471"
"853000259","Sandhouse Hotel 1","54.5544928904338","-8.20992576902235"
"853000260","Friary 1","54.5478182658616","-8.20389459132753"
"853000268","Doagh 1","55.309235883964","-7.33627962205734"
"853000269","Mill Road 1","54.95150788994","-8.36782931704393"
"853000270","Church Hill Post Office 1","54.9853019735695","-7.88994778937874"
"853000273","Glenveagh National Park 1","55.0595837620048","-7.93923718335145"
"853000275","Railway Avenue 1","54.7968989274758","-7.68299651670066"
"853000295","Ballyrain Road/LYIT 2","54.9535414058118","-7.72115212621755"
"853000308","Brinlack 1","55.128007756919","-8.27976440793471"
"853000331","Letterkenny, Ramelton Road 1","54.9541423446158","-7.72864148945897"
"853000332","Bundoran, Primary Care Centre 1","54.4779700448862","-8.27512501906381"
"853000333","Bundoran, Church 1","54.4761749083918","-8.27821419178053"
"853000335","Rossnowlagh Upper, Surf School 1","54.5547640474734","-8.20899964693438"
"853000336","Coolmore, Finnegan's Shop and Post Office 1","54.5445727186626","-8.21026120936652"
"853000337","Drumoghill, Biddy Friel's 1","54.9362383421775","-7.5939850803168"
"853000340","Dromore (Donegal), Junction (Dual Carriageway) 2","54.9449522712043","-7.67758733052328"
"853000346","Meenlaragh, Magheraroarty 1","55.1442264392979","-8.17823513214664"
"853000347","Magheraclogher, Gweedore Industrial Estate 1","55.0662096110903","-8.28911762820671"
"853000348","Dore Upper, Dore 1","55.0376693202368","-8.25557478756129"
"853000349","Ballyraine Halls, Ballyraine National School 1","54.9517764076952","-7.71171993526555"
"853000350","Dunree, Dunree Fort 1","55.1954813309268","-7.54731307555409"
"853000353","Castlefin, McGlynn's Castlefinn 1","54.8029575299546","-7.59351805844231"
"853000354","Cloughfin (Donegal), River Club  1","54.7938685882146","-7.55122055788249"
"853000355","Carrickmore (Donegal), Maggie's Tavern 1","54.8958836395768","-7.46514200992233"
"853000356","Letterkenny, Community Centre 1","54.9493547177909","-7.73321614897762"
"853000357","Letterkenny Business Park, Arena 7 1","54.9570283000833","-7.70626475775803"
"853000358","Boyoughter, Ballinacarrick Crossroads 1","54.8653822195163","-8.27978133689845"
"853000359","Maghery, Community Centre 1","54.9291204120219","-8.44265450092233"
"8530B100031","Porthall 2","54.8727646916998","-7.46487167726268"
"8530B1324801","Bus Station Ballyshannon 2","54.5009745587482","-8.18979777706143"
"8530B140021","Finner (Opp Finner Camp) 1 2","54.4927054369327","-8.23714539336863"
"8530B1400901","County Donegal, Finner Camp ->W","54.4926236617267","-8.23760797400653"
"8530B140121","Killygordon (National School) 1","54.7968783262443","-7.68543816377576"
"8530B1402301","Mountcharles PO 2","54.6458134099844","-8.19600295787849"
"8530B1402501","Frosses (Opp Cemetery) 1 2","54.6676089766614","-8.24185252360183"
"8530B1402901","Dunkineely 2","54.6319617328334","-8.35924041034126"
"8530B1403201","Main Street 1","54.6370205285029","-8.44079260394893"
"8530B1403801","Main Street 2","54.6324574841493","-8.59217140667753"
"8530B1404601","Carrick (Central Bar) 1 2","54.6578748145059","-8.63334707596066"
"8530B140811","Ballyshannon (Bus Station) 1 2","54.5009655736094","-8.18979773542662"
"8530B1411001","Raphoe, Raphoe ->E","54.8737965308857","-7.59987912260045"
"8530B141111","Ardaghey Crossroads (Eastbound) 1 2","54.6538560446438","-8.2858264997804"
"8530B141301","Ballybofey (McElhineys) 1 2","54.8002111341245","-7.77881833589249"
"8530B141311","Carrigans (Post Office) 1 2","54.9511655509754","-7.42745804883849"
"8530B141331","Castlefin (Monument The Diamond) 1 3","54.8015428406203","-7.59230359141697"
"8530B1413401","St. Johnston 1","54.9345898664497","-7.46110196096281"
"8530B142631","Lettermacaward (Church) 1 2","54.8554634879152","-8.30927096758405"
"8530B1522701","Lifford, Lifford ->E","54.8316092420127","-7.48235016555005"
"8530B152491","Lifford (Opp Lifford Hospital) 1 2","54.8318811593765","-7.48290700673389"
"8530B1558201","Donegal, Donegal Abbey Hotel ->N1","54.6538640533536","-8.11076637823077"
"8530B1558301","Stranorlar (Pound Street) 1 2","54.8046706904926","-7.76610206576195"
"8530B1559601","Letterkenny, Letterkenny It ->SE","54.9508466556547","-7.72142054471318"
"8530B158221","Letterkenny, Letterkenny It ->NW","54.9508994167047","-7.72092065174142"
"8530B6000401","Laghey 2","54.6180517475988","-8.0863924833752"
"8530B6000601","Dungloe (Opp Sweeneys Hotel) 1 2","54.9502443606619","-8.36073081961332"
"8530B6000701","Laghey 1","54.6177104388597","-8.08622145398844"
"8530B631151","Ballintra (Cathederal St Jctn) 1 2","54.5780615081614","-8.1250226953007"
"8530B6313301","Ballintra 2","54.5780346647973","-8.12491434160599"
"8530B6358001","Bundoran, Bundoran East Bus Stop ->SW","54.4808323836099","-8.27290677830841"
"8530B6358101","Bundoran, Bundoran West Bus Stop ->W","54.4765617770464","-8.28948006170167"
"8530B6358301","Ballybofey, Ballybofey ->NE4","54.8000942199723","-7.77875676603"
"8530PB000297","Gleneely (Donegal), Gleneely ->NW","55.2396226968542","-7.14770327898594"
"8530PB000300","Loch Altan, Loch Altan ->NE","55.1215269292461","-8.13312627599514"
"8530PB000323","Malin, Malin ->NW","55.2949757990965","-7.25933379247844"
"8530PB000401","Lifford, AIB Lifford ->E","54.831827385973","-7.48293882284769"
"8530PB000430","Loughanure, Loughanure ->NE","54.9984285091596","-8.29017730507587"
"854000001","Newbliss, Newbliss 1","54.1570894455901","-7.1385126641386"
"854000002","Three Mile House, Three Mile House 1","54.2168337293664","-7.04278964757624"
"854000026","The Diamond Clones 2","54.1792101964244","-7.23244636981698"
"8540B153941","Castleblayney (Old Coach Inn) 1 2","54.11892702162","-6.73655642352278"
"8540B1559201","Monaghan, Monaghan Bus Station ->E2","54.2522613798867","-6.96927571257889"
"8540B1559301","Castleblayney, Castleblayney Hanratty ->N1","54.1190089974757","-6.73666100966115"
"8540B1559801","St Macartans School (Monaghan) 1 2","54.2639017322631","-6.95817871263012"
"8540BE500076","Monaghan, Monaghan Bus Bays YYY$3","54.2522342963848","-6.96926104196435"
"8540LL10163","Mullaghmurphy, Monaghan Institute 1","54.2636782005694","-6.94898954607873"
"8540LL10164","Gallinagh, CombiLift 1","54.2535684882919","-6.98672273777808"
"8540LL10166","Monaghan, Rooskey 1","54.2548158550617","-6.96118555554436"
"8540LL10168","Monaghan, Monaghan Hospital 1","54.2503490036271","-6.97368145642242"
"8540LL10172","Bellanode, Ballinode 2","54.2668992826358","-7.03661010972319"
"8540LL10173","Scotstown, Scotstown 2","54.2773736940045","-7.06706081838561"
"8540LL10174","Tedavnet, Tydavnet 1","54.2965507166084","-7.01520953941642"
"8540LL10175","Scotstown, Scotstown 1","54.2774716901537","-7.06695111801226"
"8540LL10176","Bellanode, Ballinode 1","54.2667741160497","-7.03668978497131"
"8540LL10178","Monaghan, Dawson Street 1","54.2468493931592","-6.97109848384923"
"8540LL10179","Monaghan, Monaghan Town Library 2","54.2490313549517","-6.97090607382043"
"8540LL10183","Beechgrove Estate Monaghan 1","54.2386020421536","-6.96815879842664"
"8540LL10186","Doohamlat, All Saints Church 1","54.1286992562154","-6.824773013006"
"8540LL10190","Corrybrennan, O'Duffy Terrace 1","54.122319640183","-6.90093921469798"
"8540LL10191","Ballybay, O'B's Steakhouse 1","54.1278818069181","-6.90287281015209"
"8540LL10193","Tullycorbet, Community Centre 2","54.1647772687809","-6.89381123163473"
"8540LL10194","Ardaghy (Monaghan), Ardaghy 1","54.2137019340007","-6.90703869486239"
"8540LL10195","Beachgrove Estate Monaghan 1","54.2385769278518","-6.96837419783498"
"8540LL10196","Doohamlat, All Saints Church 2","54.1288337153368","-6.82473860612473"
"8540LL10198","Scotshouse, Scotshouse 1","54.1222260813333","-7.24888913619862"
"8540LL10199","Scotshouse, Scotshouse 2","54.1222197680455","-7.24931758129648"
"8540LL10200","Monaghan, Monaghan Hospital 2","54.25030486671","-6.97377462380132"
"gen:31400:890:0:1","Derry, Water Street 1","54.9960686943561","-7.31732885231964"
"gen:57109:8093:0:1","Pollagh, Community Centre 1","53.2830881867435","-7.72005779549795"
"gen:57109:8154:0:1","Shinrone, Post Office 1","52.9831486333796","-7.92758141337696"
"gen:57109:8156:0:1","Moneygall, Barack Obama Plaza 1","52.8857328612669","-7.944934954265"
"gen:57111:2912:0:2","Sea Scapes 2","52.6220214011741","-6.23228183834905"
"gen:57111:8245:0:1","Parknacross, Glenbeg Point 1","52.626361378279","-6.23156035068707"
"gen:57111:8245:0:2","Parknacross, Glenbeg Point 2","52.626295626435","-6.23137096353591"
"gen:57111:8246:0:1","Wafer'S Borough, Branogue Park 1","52.6324357035142","-6.2314040285466"
"gen:57111:8246:0:2","Wafer'S Borough, Branogue Park 2","52.6323793759534","-6.23124378390412"
"gen:57111:8247:0:1","Gorey, Tesco 1","52.6736829110828","-6.30055855483702"
"gen:57111:8248:0:1","Knockmullen, The Hatch Lab 1","52.6683734010472","-6.29139012664538"
"gen:57112:412:0:1","Knockrobin (Wicklow), Primary Healthcare 1","52.9896651813981","-6.06645062139578"
"gen:57112:7909:0:2","Laragh (Wicklow), Great Gas, Laragh 2","53.0085952668548","-6.29805482195556"
"gen:57112:7909:0:3","Laragh (Wicklow), Great Gas, Laragh 3","53.0087457908946","-6.29915167442386"
"gen:57112:7928:0:2","Wicklow, Main Street 2","52.9804891883455","-6.04239093032664"
"gen:57202:7973:0:1","Newtownshandrum, St. Joseph's Church 1","52.3439313898796","-8.76665374938825"
"gen:57202:8144:0:1","Dunderrow, The Fields Bar 1","51.727546490884","-8.58915962869852"
"gen:57202:8145:0:1","Kinsale, Kinsale College 1","51.7081819991981","-8.53091393258982"
"gen:57202:8146:0:1","Ballinspittle, Lissoran 1","51.6661602966248","-8.59736925076267"
"gen:57203:514:0:1","Listowel, Upper William Street 1","52.4492273909168","-9.48629821655192"
"gen:57203:7673:0:1","Listowel, Upper Church Street 1","52.4478707399316","-9.47907316373566"
"gen:57203:8091:0:1","Chapeltown, Chapeltown GAA Club 1","51.9061568889044","-10.3385937844138"
"gen:57204:7972:0:1","Kilmeedy, Kilmeedy Graveyard 1","52.4145253098334","-8.91490565506316"
"gen:57204:7974:0:1","Feenagh, St. Ita's Church 1","52.3896589715386","-8.87745652783203"
"gen:57204:7975:0:1","Feohanagh (Limerick), St. Mary's Church 1","52.3866823053718","-8.97513486533131"
"gen:57204:7976:0:1","Mahoonagh, Community Centre 1","52.4308033378606","-9.0099309497676"
"gen:57204:8151:0:1","Knockbrack West (Limerick), Knockbrack West 1","52.6797391410327","-8.50085365035295"
"gen:57205:8147:0:1","Ballycahill, Church 1","52.6883933662326","-7.90940341648382"
"gen:57205:8148:0:1","Upperchurch, Upperchurch Crossroads 1","52.7026632741111","-8.01927931989092"
"gen:57205:8149:0:1","Kilcommon Cross, The Cross Bar 1","52.6793653999332","-8.16193114889698"
"gen:57205:8150:0:1","Newpark (Tipperary), Gleann Crí 1","52.7098687417038","-8.40113005152788"
"gen:57205:8153:0:1","Roscrea, Roscrea Rail Station 1","52.9596906879577","-7.79578077719734"
"gen:57205:8155:0:1","Cloghjordan, Church 1","52.9412118760859","-8.03487250375562"
"gen:57206:313:0:1","Slievekeale, Manor Village 1","52.2519624572913","-7.11681225427532"
"gen:57206:313:0:2","Slievekeale, Manor Village 2","52.2519078747944","-7.11672546169977"
"gen:57206:330:0:1","Tramore, Tesco 1","52.1644971439688","-7.16071605318349"
"gen:57206:330:0:2","Tramore, Tesco 2","52.1644525171033","-7.16076074478228"
"gen:57206:335:0:1","Fennor, Mother McHugh's 1","52.1612195190041","-7.22560074773229"
"gen:57206:335:0:2","Fennor, Mother McHugh's 2","52.161193034961","-7.225674288448"
"gen:57206:4555:0:1","Pulla, An Seanchaí Bar 1","52.0451236998437","-7.65754809079494"
"gen:57206:6107:1:1","Ribh Road (Opp Clairin Wood) 1 1","52.165430952072","-7.16436751423767"
"gen:57301:7669:0:1","Portumna, Irish Workhouse Centre 1","53.0985574735782","-8.22307783582295"
"gen:57301:7670:0:1","Portumna, Portumna Castle and Abbey 1","53.0898078818858","-8.22089780196262"
"gen:57304:11921:0:->E1","Roscommon, Roscommon Hospital ->E1","53.6257807030583","-8.17677857845348"
"gen:57304:7866:0:1","Lough Key Wood, Lough Key Car Park 1","53.9839809301411","-8.2301754943364"
"gen:57305:10:0:1","Carrick Coola, Coola School 1","54.1542811704915","-8.37347777347999"
"gen:57305:11:0:1","Sooey, Sooey Community Hall 1","54.1669582646308","-8.39653190614474"
"gen:57305:12:0:1","Ballygawley (Sligo), Ballygawley Shop 1","54.1918342209514","-8.44689131298183"
"gen:57305:13:0:1","Carraroe (Sligo), Carraroe Church 1","54.2432489781652","-8.47544595988036"
"gen:57305:8172:0:1","Ardaghowen, Sligo University Hospital 1","54.2744006245884","-8.46198624195337"
"gen:57402:1:0:1","Drimicanoo, Drumcanoo Junction 1","54.9612855410131","-7.86257924003629"
"gen:57402:2204:0:1","Carndonagh, James Connolly centre 1","55.2960538964504","-7.26528138897284"
"gen:57402:3430:0:1","Lag, Lag 1","55.319194023126","-7.32221741396245"
"gen:57402:3590:0:1","Culdaff, Culdaff 1","55.2875402585747","-7.16778767823159"
"gen:57402:7977:0:1","Muff, McGonigle's Service Station 1","55.0669825374159","-7.26904546711363"
"gen:57402:7987:0:1","Naran, Annora Bar 1","54.8371381930498","-8.44423140352449"
"gen:57402:7988:0:1","Kilclooney Beg, Dolmen Centre 1","54.8228761233003","-8.43769486864388"
"gen:57402:7989:0:1","Sandfield (Donegal), Sandfield Pitch and Putt 1","54.8010533631951","-8.43980745978435"
"gen:57402:7990:0:1","Carrickart, Carrigart Hotel 1","55.1773777525039","-7.79302980238411"
"gen:57402:7991:0:1","Rosapenna, Rosapenna Hotel 1","55.1889660979162","-7.82681005068136"
"gen:57402:7992:0:1","Carrigeen (Donegal), Mickey Joe's Stores 1","55.1655681597651","-7.80122045077876"
"gen:57402:7993:0:1","Drimdoo, Doherty's Bar 1","55.3309293726189","-7.30182906715579"
"gen:57402:7994:0:1","Crossroads (Donegal), Cross Roads Hotel 1","55.3627786609064","-7.33741859670229"
"gen:57402:7996:0:1","Malin Head, Malin Head Tower 1","55.3798801892042","-7.3741345858623"
"gen:57402:8049:0:1","Meentinadea, Meentinadea Crossroads 1","54.7456304526496","-8.35622313264962"
"gen:57402:8050:0:1","Meenabradden, Meenabradden Crossroads 1","54.7130162619129","-8.31007923642939"
"gen:57402:8051:0:1","Crolly, Crolly 1","48.5229859345253","-8.22739251659053"
"gen:57402:8052:0:1","Annagry, Annagry 1","55.021889944163","-8.31775986719898"
"gen:57402:8053:0:1","Mullaghduff (Donegal), Mullaghduff 1","55.0280645883958","-8.34653986345572"
"gen:57402:8054:0:1","Mullaghduff Scotch, Donegal Airport 1","55.0373658845144","-8.34252143876998"
"gen:57402:8055:0:1","Kincasslagh, Keadue 1","54.9974793244544","-8.41863565738043"
"gen:57402:8056:0:1","Burtonport, Burtonport 1","54.9830749840818","-8.44209184411167"
"gen:57402:8085:0:1","Bunagee, Bunagee Road 1","55.2944300846825","-7.17025721952042"
"gen:57402:8086:0:1","Leiter (Donegal), Leitir 1","55.3079077624146","-7.17574062157021"
"gen:57402:8087:0:1","Portaleen, Portaleen 1","55.3134328136188","-7.17436579302055"
"gen:57402:8088:0:1","Glengad Mountain, Laffertys Shop 1","55.3217706929878","-7.18244873439174"
"gen:57402:8089:0:1","Urbalreagh, Urbaleagh National School 1","55.3357083787676","-7.28771727000455"
"gen:57402:8090:0:1","Malin Head, Mullins Shop 1","55.3498892058937","-7.31510259182715"
"gen:57402:8158:0:1","Downings (Donegal), Downings 1","55.1948005702295","-7.83601954291816"
"gen:57402:8159:0:1","Finger Post 1","55.1963185214153","-7.849677567103"
"gen:57402:8160:0:1","Derrycassan Cottages, Simons 1","55.2038738724417","-7.84941347076845"
"gen:57402:8161:0:1","Derrycassan, Grotto 1","55.2105750169901","-7.85600278395396"
"gen:57402:8162:0:1","Dooey, Dooey 1","55.2248763699234","-7.85483521153159"
"gen:57402:8163:0:1","Glebe, Glebe 1","55.2177871562115","-7.81450617472429"
"gen:57402:8164:0:1","Clontallagh, Singing Pub 1","55.2091238930671","-7.81878845241627"
"gen:57402:8165:0:1","Kinnalargy, Kinnelargy 1","55.1956423977353","-7.82131547054013"
"gen:57402:8166:0:1","Radharc Na Mara, Downings Cottages 1","55.1957639951123","-7.83098971916993"
"gen:57402:8168:0:1","Altmore, Lenamore Cross Roads 1","55.1618401285716","-7.78556217719257"
"gen:57402:8169:0:1","Gortnabrade, Gortnabrade 1","55.1630380756585","-7.77237364250688"
"gen:57402:8170:0:1","Carmoney, Tullagh 1","55.1514446729646","-7.73911740056312"
"gen:57402:8171:0:1","Bayview Cottages, Gap Filling Station 1","55.1667167575123","-7.73443492243452"
"gen:57402:8177:0:1","Buncrana, Buncrana 1","55.1361916003997","-7.45658597088129"
"gen:57402:8178:0:1","Tir Na Sligo, Tiernasligo National School 1","55.2693233365219","-7.49703427572193"
"gen:57402:8179:0:1","Straid (Donegal), Waterfall 1","55.2679246623173","-7.43600207149928"
"gen:57402:8224:0:1","Bridge End, 19th Hole Bar 1","55.0443875208672","-7.38109760160748"
"gen:57403:7923:0:1","Knockatallon, Knockatallon 1","54.5093927947178","-7.22458650982378"
